FoodId,PubName,Address,Zipcode,Easting,Northing,Lat,Long,District
22,Anchor Inn,"Upper Street, Stratford St Mary, COLCHESTER",CO7 6LW,604749,234404,51.970379,0.97934,Babergh
279544,Crown Inn,"The Street, Finglesham, Kent",CT14 0NA,633781,153729,51.234825,1.347519,Dover
137712,Hemingford Arms Public House,"Hemingford Arms Public House, 158 Hemingford Road, Islington, London",N1 1DF,530943,184361,51.542974,-0.113154,Islington
110094,Merchant House of Fleet Street,"8 Bride Court, London",EC4Y 8DU,531603,181131,51.513776,-0.104848,City of London
128825,The Two Brewers,"40 Scotland Green, Tottenham, London",N17 9TT,533969,190440,51.596883,-0.067243,Haringey
117714,Enfield Highway Working Mens Club,"Social Club, 97 Ordnance Road, ENFIELD",EN3 6AG,535932,198785,51.671401,-0.035669,Enfield
61786,Staveley Miners Sports Club,"Sports Ground, Lowgates, Chesterfield",S43 3TU,444343,375103,53.271072,-1.336556,Chesterfield
556639,Wellingtons,"17 Wellington Square, Ayr, South Ayrshire",KA7 1EZ,233357,621710,55.460766,-4.637166,South Ayrshire
528306,The Auld Vic,"The Auld Vic, Grahams Road, Falkirk",FK2 7DJ,288846,680626,56.005653,-3.784115,Falkirk
203246,Burnley Masonic Hall,"Masonic Hall, Nelson Square, Burnley, Lancashire",BB11 1LA,383789,432240,53.786217,-2.247524,Burnley
560813,Glenhead Tavern,"Glenhead Tavern, Dumbarton Road, Duntocher, Clydebank",G81 6HD,249207,672795,55.924517,-4.414873,West Dunbartonshire
70863,Lime Kilns,"Watling Street, Burbage, Hinckley, Leicestershire",LE10 3ED,440127,293024,52.53361,-1.409874,Hinckley and Bosworth
158468,The hope,"The Hope, 3, Melon Road, London",SE15 5QW,534067,176713,51.473513,-0.071036,Southwark
45103,Harperbury Bowls Club,"Heath Way, Shenley, Radlett, Hertfordshire",WD7 9FG,517238,201908,51.703674,-0.30481,St Albans
21230,The Village Maid,"71 The Street, Lound, Lowestoft, Suffolk",NR32 5LP,650449,299123,52.532342,1.69125,East Suffolk
470894,Silks Gentlemens Lounge,"2 Sovereign Place, Leeds",LS1 4SP,429996,433200,53.794251,-1.546128,Leeds
596295,Chequers Wine Bar,"7 - 9 Church Street, Wrexham, Wrexham",LL13 8LS,333511,350185,53.044781,-2.993199,Wrexham
303801,The Three Trees / Chopstix @ The Three Trees,"144 Buckingham Road, Bletchley, Milton Keynes",MK3 5JB,485395,233246,51.99111,-0.757759,Milton Keynes
471461,The Barley Corn Inn,"68 Main Street, Scholes, Leeds",LS15 4DH,438109,436490,53.823291,-1.422569,Leeds
359547,Sandford & District Labour Club,"Sandford Labour Club Keysworth Drive, Sandford, Dorset",BH20 7BD,393250,89732,50.707184,-2.096953,Dorset
249405,Hale Barns Cricket Club,"Brooks Drive, Hale Barns",WA15 8TL,379893,385645,53.367284,-2.303637,Trafford
194651,Hop House,"Hop House, Unit 34 Stack Seaburn, Whitburn Road, Sunderland",SR6 8AA,440479,560371,54.936375,-1.369747,Sunderland
438929,The Pilot,"58 Green Lane, Wolverhampton, West Midlands",WV6 9HX,389681,301357,52.609891,-2.15382,Wolverhampton
66877,The Terrace Bar,"Bjs Leisure World, Sea Lane, Ingoldmells Skegness",PE25 1PG,556845,368798,53.193141,0.346267,East Lindsey
247734,Lord Napier,"Lord Napier, 3 Albion Street, Ashton-Under-Lyne, Tameside",OL6 6HF,394224,399212,53.489585,-2.088521,Tameside
413038,The Red Lion,"Hay Lane, Longdon Green, Rugeley, Staffordshire",WS15 4QF,408465,313336,52.717613,-1.876122,Lichfield
307845,The White Hart,"12 St Andrew's Road, Oxford, Oxfordshire",OX3 9DL,454441,207619,51.764605,-1.212532,Oxford
384126,SIBA Southwest,The Maltings Teign Road Newton Abbot Devon,TQ12 4AA,286743,71453,50.531853,-3.599372,Teignbridge
408572,Seven Stars,"Gospel End Road, Sedgley",DY3 3LT,391103,293589,52.54008,-2.132614,Dudley
521529,Longniddry Bowling Club,"Longniddry Bowling Club, Seton Road, Longniddry, East Lothian",EH32 0LD,344077,676369,55.977025,-2.897701,East Lothian
27514,The Masonic Lodge,"2 Wellington Street, St Ives, Cambridgeshire",PE27 5AZ,531368,271100,52.322289,-0.073944,Huntingdonshire
4857,The Five Bells PH,"7 Mill Lane, Colne Engaine, Colchester, Essex",CO6 2HY,585127,230305,51.940436,0.691835,Braintree
307225,Marsh Harrier,"The Marsh Harrier, 40 Marsh Road, Oxford, Oxfordshire",OX4 2HH,454095,204704,51.73844,-1.217997,Oxford
134709,Wheatsheaf,"The Wheatsheaf Public House, 286 High Street, Harlington",UB3 5DU,508767,177440,51.485463,-0.43493,Hillingdon
433170,Severn Gorge Restaurant,"The Severn Gorge, 1 Southwater Way, Telford Town Centre, Telford, Shropshire",TF3 4NL,369430,308850,52.67648,-2.453568,Telford and Wrekin
552503,De Beers,"59 High Street, Paisley, Renfrewshire",PA1 2AS,248003,663963,55.844855,-4.429162,Renfrewshire
563447,Ebbw Vale Ex-Servicemens Institute Ltd,"Ebbw Vale Ex-Servicemens Club, Queen Square, Ebbw Vale, Blaenau Gwent",NP23 6EF,316944,209578,51.778681,-3.205295,Blaenau Gwent
123407,Mother Kellys Bottle Shop,"186 Well Street, Hackney, London",E9 6QT,535553,184617,51.544177,-0.046633,Hackney
527493,Carron & Carronshore Bowling Club,"Carron & Carronshore Bowling Club, 25 Beaumont Drive, Carron",FK2 8SN,288559,682534,56.02272,-3.789523,Falkirk
174068,Black Horse Hotel,"10 Newgate, Barnard Castle",DL12 8NG,405141,516303,54.541973,-1.922036,County Durham
178144,The Wicket Gate,"193 Front Street, Chester-Le-Street",DH3 3AX,427481,550955,54.852645,-1.573505,County Durham
470475,Railway Inn (Calverley Bridge),"8 Calverley Bridge, Rodley, Leeds",LS13 1NF,422195,436834,53.827311,-1.664288,Leeds
363819,Timepiece,"Little Castle Street, Exeter, Devon",EX4 3PX,292185,92877,50.725479,-3.528848,Exeter
526510,The Albanach,197 High Street,EH1 1PE,325845,673655,55.950181,-3.189044,City of Edinburgh
367299,Elmore AFC,Horsden Park Blundell's Road Tiverton Devon,EX16 4DB,296248,112737,50.904751,-3.476928,Mid Devon
70305,The Sycamore Inn,"Sycamore Road, Birch Vale, High Peak",SK22 1AB,401356,386982,53.379681,-1.98108,High Peak
193613,Thirsty Souls,"1-3 Regency West Mall, Stockton-On-Tees",TS18 1EF,444409,518895,54.563344,-1.314736,Stockton-on-Tees
334493,The Willow Tree,"14 Durngate Terrace, Winchester, Hampshire",SO23 8QX,448593,129633,51.063984,-1.307928,Winchester
321464,Boughton Under Blean Bowling Club,"South Street, Boughton Under Blean, Faversham, Kent",ME13 9NA,604588,159147,51.294677,0.93305,Swale
408788,Talk of the Town,"63 High Street, Halesowen",B63 3BG,396685,283580,52.450169,-2.050204,Dudley
18395,Salisbury Arms Hotel,"24-26 Fore Street, Hertford, Hertfordshire",SG14 1BZ,532655,212546,51.79584,-0.077789,East Hertfordshire
401157,The Old Crown,"The Old Crown, 188 High Street, Nechells Deritend, Birmingham",B12 0LD,408004,286326,52.474806,-1.883595,Birmingham
89033,The Anchor Inn,"211 High Street, Newhall, Swadlincote, Derbyshire",DE11 0EA,429381,320548,52.781718,-1.565844,South Derbyshire
401353,The York Pub,"The York, York Road, Hall Green, Birmingham",B28 8LE,411215,282303,52.438585,-1.83645,Birmingham
383042,The Sun Inn,"Marlborough Road, Swindon",SN3 6AA,418523,182746,51.54331,-1.734293,Swindon
589146,The Tai'r Bull Inn,"Libanus, Brecon, Powys",LD3 8EL,299883,226340,51.926544,-3.457376,Powys
328665,The Wheatsheaf,"3 The Green, Drayton, ABINGDON",OX14 4JA,447629,194134,51.643999,-1.313083,Vale of White Horse
531085,Methil And District Ex-Servicemens Club,282 High Street Methil Leven Fife,KY8 3EQ,337411,699626,56.18514,-3.009953,Fife
298203,The Unicorn,"The Unicorn Inn, High Street, Marden, Kent",TN12 9DR,574595,144595,51.17394,0.496252,Maidstone
337376,Leander Club,"Remenham Lane, Remenham",RG9 2LP,476439,182693,51.537974,-0.899268,Wokingham
18898,Yew Tree,"57 High Street, Walkern, Stevenage, Hertfordshire",SG2 7NX,528922,226315,51.920442,-0.126757,East Hertfordshire
354717,The White Hart Hotel,"White Hart Hotel, 10 Foundry Square, Hayle, Cornwall",TR27 4HQ,155906,37152,50.183979,-5.420615,Cornwall
456680,Telegraph Inn,"110 Quay Road, Bridlington, East Riding Of Yorkshire",YO16 4JB,517815,467091,54.086258,-0.200388,East Riding of Yorkshire
412098,The Yew Tree Inn,"Preston-On-Wye, Hereford",HR2 9JT,338542,241546,52.068848,-2.898,"Herefordshire, County of"
138082,Love's Company,"Love's Company, Unit 1-2 Basement -Ground Floor, Imperial Hall, 104-122 City Road, Islington",EC1V 2NR,532709,182551,51.526295,-0.088384,Islington
237851,The Bee Hive Inn,"74 Holland Street, Salford",M6 6FE,381037,400099,53.497254,-2.287305,Salford
548157,Cesars Bar,"800 Old Edinburgh Road, Uddingston, North Lanarkshire",ML4 3JG,271870,660731,55.822774,-4.046735,North Lanarkshire
300162,The Ship PH,"The Ship, Upnor Road, Upnor, Rochester",ME2 4UY,576049,171115,51.411723,0.530092,Medway
197052,The Royal British Legion,"Salterbeck Road, Salterbeck, Workington, Cumbria",CA14 5JU,298942,525848,54.61764,-3.566496,Allerdale
249139,David Lloyd Leisure Ltd,"Manchester Racquets, Barton Embankment, Urmston, Manchester",M17 8RH,376190,397088,53.469992,-2.360154,Trafford
418736,Cradley Heath Sports and Social Club,"Cradley Heath Liberal Club, 60 Upper High Street, Cradley Heath",B64 5HU,394897,286365,52.47519,-2.076556,Sandwell
398709,Pickwick Cricket & Social Club,"Wake Green Public Playing Fields, Windermere Road, Springfield, Birmingham",B13 9QR,409238,282328,52.43885,-1.865527,Birmingham
566481,Risca Rugby Club,"Risca Rugby Club, Tredegar Terrace, Pontymister, Newport",NP11 6BY,323875,190230,51.605743,-3.100619,Caerphilly
264955,The Village Inn,"21 Yorktown Road, Sandhurst",GU47 9DX,483435,161540,51.346828,-0.803399,Bracknell Forest
375786,Anchor Inn,"Church Road, Oldbury-On-Severn, South Gloucestershire",BS35 1QA,360913,192468,51.629658,-2.566096,South Gloucestershire
186546,Bamburgh Castle Inn,"Seafield Road, Seahouses, Northumberland",NE68 7SQ,421972,632158,55.582579,-1.653022,Northumberland
235383,The Wheatsheaf,"Wheatsheaf Hotel, Church Street, Littleborough, Lancashire",OL15 8AB,393668,416334,53.643476,-2.097254,Rochdale
350238,The Hatherley,"293 Hatherley Road, Cheltenham, Gloucestershire",GL51 6HT,391860,220887,51.88648,-2.119674,Cheltenham
66904,The Wick,"12 Queen Street, Louth",LN11 9AU,532949,387362,53.366411,-0.003401,East Lindsey
246963,Ashton-Under-Lyne Golf Club,"Ashton Golf Club, Gorsey Way, Ashton-Under-Lyne, Tameside",OL6 9HT,395327,400828,53.504122,-2.071922,Tameside
389520,Greyhound Inn,"High Street, Bromham, Chippenham, Wiltshire",SN15 2HA,396439,165387,51.387524,-2.05256,Wiltshire
378751,The Old Smithy,"45 Fore Street, Ivybridge",PL21 9AE,263501,56142,50.389279,-3.921537,South Hams
246291,Stockport Rugby Union Football Club,"Headlands Road, Bramhall, Stockport",SK7 3AN,389924,386152,53.37213,-2.152905,Stockport
122338,Duke Of Wellington,"The Duke Of Wellington, 260 Haggerston Road, Hackney, London",E8 4EP,533622,184120,51.540172,-0.074637,Hackney
422439,Plough Inn,"Chapel Street, Pontesbury, Shrewsbury, Shropshire",SY5 0RJ,340122,305949,52.647963,-2.886467,Shropshire
515294,The Gartmorn Lounge,"The Gartmorn, Posthill, Sauchie, Clackmannanshire",FK10 3NS,290004,694130,56.127182,-3.771123,Clackmannanshire
360587,The Royal Oak,"52 - 54 Dorchester Road, Weymouth, Dorset",DT4 7JZ,367902,80537,50.623646,-2.455119,Dorset
348696,The Golden Guinea,"19 Guinea Street, Redcliff, Bristol",BS1 6SX,358926,172197,51.447261,-2.592427,"Bristol, City of"
412311,Baba's Cook & Bakehouse @ The Horse & Jockey,"10 Sandford Street, Lichfield, Staffordshire",WS13 6QA,411519,309437,52.682507,-1.831054,Lichfield
533226,Arlington Bar,"130 Woodlands Road, Glasgow",G3 6HB,257811,666350,55.869277,-4.273911,Glasgow City
66566,The Anchor Inn,"Anchor Hotel, Anchor Lane, Ingoldmells Skegness",PE25 1LX,556937,369684,53.201071,0.348079,East Lindsey
523009,Born in Scotland,"3 Waverley Bridge, Edinburgh",EH1 1BQ,325708,673931,55.952639,-3.191312,City of Edinburgh
441809,Spencers @ The Bridge Inn,"Bridge Inn, 10 Bridge Street, Stourport On Severn, Worcestershire",DY13 8UX,380876,271213,52.338661,-2.282107,Wyre Forest
137019,Blue Nile,"Blue Nile, Ground Floor, 182 Seven Sisters Road, Islington",N7 7PX,531056,186473,51.561909,-0.11074,Islington
15557,Berkhamsted Town Hall,"Berkhamsted Town Hall, 196 High Street, Berkhamsted, Hertfordshire",HP4 3AP,499170,207878,51.760807,-0.564504,Dacorum
453919,The Victoria Inn,"South End, Thorne, Doncaster",DN8 5QN,469010,412476,53.604311,-0.958561,Doncaster
65869,London Road Pavilion & Grounds,"The Pavilion, London Road, Louth",LN11 9QP,532849,386429,53.358055,-0.005295,East Lindsey
428745,Florence Tennis  & Bowling Club,"Cemetery Avenue, Dresden, Stoke-on-Trent",ST3 4EB,390901,342498,52.979748,-2.136963,Stoke-on-Trent
108801,The Ice Wharf,"Suffolk Wharf, 28-30 Jamestown Road, London",NW1 7BY,528575,183990,51.540184,-0.147422,Camden
458144,The Reubens,"12 Bedale Road, Leeming Bar, North Yorkshire",DL7 9AY,428650,489936,54.304231,-1.561225,Hambleton
450492,The Wellington Inn,"66 Rochdale Road, Halifax",HX2 7HB,407428,424283,53.714921,-1.88893,Calderdale
182956,Dog And Parrot,"52 Clayton Street West, Newcastle Upon Tyne, Newcastle Upon Tyne",NE1 4EX,424375,563843,54.968616,-1.620789,Newcastle upon Tyne
151302,Queens Head,"5 - 7 West Ham Lane, Stratford, London",E15 4PH,538958,184314,51.540629,0.002344,Newham
368000,Chichester Arms,"East Street, Bishops Tawton, Barnstaple, Devon",EX32 0DQ,256738,130000,51.051434,-4.045316,North Devon
216677,Cross Axes,"7 Church Street, Great Harwood, Lancashire",BB6 7NF,373248,432338,53.786668,-2.407515,Hyndburn
515616,Lewis & Harris Rangers Sports & Social Club,"19 Inaclete Road, Stornoway, Isle Of Lewis",HS1 2RB,142759,932567,58.206565,-6.380664,Na h-Eileanan Siar
558349,Railway Inn,"Railway Inn, 25 Kirkton Street, Carluke, South Lanarkshire",ML8 4AB,284560,650425,55.733418,-3.839938,South Lanarkshire
214851,Clifton Arms,"Clifton Arms, 135 Lytham Road, Preston",PR4 1AD,341665,428646,53.7509,-2.886129,Fylde
523841,Edinburgh Dungeon,31 Market Street,EH1 1QB,325747,673766,55.95116,-3.190642,City of Edinburgh
20932,The Bell Inn,"Ferry Road, Walberswick, Suffolk",IP18 6TN,649949,274787,52.31424,1.665719,East Suffolk
558809,The Cedarwood Bar,"23-41 Newfield Place, Rutherglen, Glasgow",G73 1HQ,260500,661508,55.826591,-4.228485,South Lanarkshire
330957,The Huntsman Inn,"Groombridge Lane, Eridge, East Sussex",TN3 9LE,554272,134496,51.089028,0.201451,Wealden
275727,The Plough Inn,"9 High Street, Bodicote, Oxfordshire",OX15 4BZ,446000,237793,52.036642,-1.330819,Cherwell
546885,Largs Sailing Club,"Largs Yacht Haven, Irvine Road, Largs, Ayrshire",KA30 8EZ,220833,657325,55.775958,-4.858161,North Ayrshire
377969,Dartington Community Centre,"Meadowbrook, Shinners Bridge, Dartington",TQ9 6JD,622675,-5527598,NULL,NULL,South Hams
315183,George And Dragon,"39 High Street, Chipstead, KENT",TN13 2RW,550284,156146,51.284633,0.153601,Sevenoaks
62667,"Ferrers Arms,","Sinfin District Centre, Sinfin Lane, Derby",DE24 3DS,434165,331161,52.876839,-1.49381,Derby
106294,Abbey Tavern,124 Kentish Town Road,NW1 9QB,528965,184669,51.546187,-0.141548,Camden
539593,Black Isle Bar and Rooms,"68 Church Street, Inverness, Highland",IV1 1EN,266539,845471,57.479784,-4.227513,Highland
593560,The Deers Leap,"Deers Leap, Heol Maes Eglwys, Morriston",SA6 6SG,266831,199584,51.679194,-3.927495,Swansea
353481,Seven Stars,"The Seven Stars Inn, 3 Trefusis Road, Flushing, Falmouth",TR11 5TY,180839,33842,50.164009,-5.070009,Cornwall
348911,The Spotted Cow,"Spotted Cow, 120 Lodge Causeway, Fishponds, Bristol",BS16 3JP,363080,175242,51.474926,-2.532974,"Bristol, City of"
282117,Hungry Horse,"Willingdon Drove, Eastbourne, East Sussex",BN23 8AL,561865,102792,50.802075,0.295687,Eastbourne
465706,Waggon and Horses (Meltham) Ltd,"Waggon And Horses Meltham Ltd, 16 Huddersfield Road, Meltham, Holmfirth",HD9 4AE,410043,410623,53.592087,-1.849741,Kirklees
82410,The Little R'Ale House,"The Ammo Room, Railway Station, Midland Road, Wellingborough",NN8 1NQ,490334,268128,52.303852,-0.676604,North Northamptonshire
172091,The Grenadier Public House,"18 Wilton Row, London",SW1X 7NR,528176,179653,51.50129,-0.154743,Westminster
367625,The Merry Harriers,Westcott Devon,EX15 1SA,302172,103882,50.826183,-3.390333,Mid Devon
301508,The Railway Tavern,The Railway Tavern 112 London Road East Grinstead West Sussex,RH19 1EP,539304,138222,51.126348,-0.010691,Mid Sussex
108728,The Crowndale,"61-65 Crowndale Road, London",NW1 1TN,529295,183388,51.534603,-0.137267,Camden
356513,BAKERS ARMS,"140 Monmouth Road, Dorchester, Dorset",DT1 2DH,369684,90032,50.709126,-2.430709,Dorset
266801,Molly Malones,"57 West Street, Brighton",BN1 2RA,530842,104191,50.822488,-0.143794,Brighton and Hove
318842,Juniper Berry,"Castle Square, Southampton",SO14 2EE,441863,111460,50.901096,-1.40605,Southampton
280458,The Three Cups,"59 Crabble Hill, Dover, Kent",CT17 0RX,630428,142978,51.139684,1.292683,Dover
526612,The Compass Bar,44 Queen Charlotte Street,EH6 7EX,327237,676215,55.97339,-3.167451,City of Edinburgh
580441,Great Western Hotel,"Great Western Hotel Edwardsville, Treharris",CF46 5NR,308646,196694,51.661583,-3.322158,Merthyr Tydfil
355646,Inn For All Seasons,"Little Barrington, BURFORD, Gloucestershire",OX18 4TN,420413,212065,51.806847,-1.705336,Cotswold
390718,Prince of Wales Micropub,"8 Station Hill, Chippenham, Wiltshire",SN15 1EG,391918,173546,51.460829,-2.117717,Wiltshire
241331,Kings Arms,"Kings Arms Hotel, King Street, Ulverston",LA12 7DZ,328586,478441,54.196732,-3.096106,South Lakeland
271342,Royal British Legion,"Elmfields Gate, Winslow, Buckinghamshire",MK18 3JG,477389,227852,51.943795,-0.875543,Buckinghamshire
591181,The Colliers Arms,"Bronllys, Penywaun, Aberdare",CF44 9AS,297827,204616,51.730923,-3.480845,Rhondda Cynon Taf
474213,Britannia Inn,"Britannia Inn, Wrawby Street, Brigg, North Lincolnshire",DN20 8BS,500288,407228,53.552121,-0.48771,North Lincolnshire
166162,Imperial College Boat Club,"Embankment, London",SW15 1LB,523698,176009,51.469528,-0.2205,Wandsworth
99369,The Hendon,"The Hendon, 377 Hendon Way, London",NW4 3LP,522940,188442,51.581439,-0.227072,Barnet
463678,Junction Inn,"1 Westbourne Road, Marsh, Huddersfield",HD1 4LA,413218,417210,53.651217,-1.8015,Kirklees
538271,The Clachan,"183 Baillieston Road, Glasgow",G32 0TN,266506,663955,55.850261,-4.133888,Glasgow City
488307,The Hemsworth,"Highfield Road, Hemsworth, Pontefract",WF9 4EB,442481,412646,53.608664,-1.359421,Wakefield
280086,Queen Street Tap,"42-44 Queen Street, Deal, Kent",CT14 6EY,637542,152548,51.222672,1.400512,Dover
248869,Bowdon Cricket & Hockey Club,"Bowdon Cricket Club, South Downs Road, Bowdon, Altrincham, Cheshire",WA14 3DT,376424,386368,53.373639,-2.355823,Trafford
390848,Rose And Crown,"Stallard Street, Trowbridge, Wiltshire",BA14 9AA,385241,157828,51.319355,-2.213167,Wiltshire
295747,Three Bishops,"Main Road, Brighstone, Newport, Isle Of Wight",PO30 4AH,442829,82724,50.642645,-1.395645,Isle of Wight
461118,New Cumberland Club,"36 Cumberland Street, Kingston Upon Hull",HU2 0QB,510052,429888,53.753754,-0.332381,"Kingston upon Hull, City of"
406631,Ukrainian Social Club,"103 Leicester Causeway, Coventry",CV1 4HL,433843,280172,52.418501,-1.50381,Coventry
246950,Ashton & District Bridge Club,"Ashton & District Bridge Club, Carr Street, Ashton-Under-Lyne, Tameside",OL6 8ES,394843,400326,53.499607,-2.079211,Tameside
86223,The Blue Bell Inn,"Blue Bell Inn, 50 Upper Parliament Street, Nottingham",NG1 2AG,457208,340104,52.95527,-1.149897,Nottingham
6390,Bardswell Social Club (Bar Only),"Club House, Bardeswell Close, Brentwood, Essex",CM14 4TJ,559102,193888,51.621319,0.2969,Brentwood
424662,Olton Mere Sailing Club,"Olton Mere Sailing Club, Warwick Road, Solihull, West Midlands",B92 7AN,413412,282027,52.436055,-1.804143,Solihull
137789,Hoxley and Porter,"Hoxley and Porter, 153 Upper Street, Islington, London",N1 1RA,531664,184077,51.540245,-0.102869,Islington
319067,Mountbatten,"Lordshill District Centre, Southampton",SO16 8HY,438806,115840,50.940712,-1.449056,Southampton
59481,Victory Club,"75 Station Road, Beeston, Nottinghamshire",NG9 2AW,453037,336732,52.925388,-1.212526,Broxtowe
402880,The Hopwood House,"Redditch Road, Alvechurch, Birmingham",B48 7AB,403059,274893,52.372073,-1.956492,Bromsgrove
21185,The Ship Inn,"Ship Inn, 95 Stradbroke Road, Lowestoft, Suffolk",NR33 7HW,653276,290497,52.453654,1.726282,East Suffolk
47449,The Cross Inn,"Cross Inn, Clacton Road, Horsley Cross, Manningtree",CO11 2NX,612358,227408,51.904714,1.085627,Tendring
456787,The Cornerhouse,"2 Norwood, Beverley, East Riding Of Yorkshire",HU17 9EY,503367,439939,53.845407,-0.430357,East Riding of Yorkshire
74257,The Lounge,"451 Saffron Lane, Leicester",LE2 6UG,458373,301015,52.603803,-1.139513,Leicester
242700,Leyland Golf Club,"Wigan Road, Leyland, Lancashire",PR25 5UD,355560,421717,53.689998,-2.674443,South Ribble
508406,BLACKDOG BAR,"North Donside Road, Bridge Of Don, Aberdeen",AB23 8PA,394263,810086,57.181558,-2.096541,Aberdeen City
576601,The Sun Inn,"Sun Inn, Eryrys, Mold, Denbighshire",CH7 4BX,320360,357860,53.111963,-3.191223,Denbighshire
34678,The Three Magnets,"18 - 20 Leys Avenue, Letchworth Garden City, Hertfordshire",SG6 3EW,521910,232677,51.979191,-0.22641,North Hertfordshire
186139,The Salutation Inn,"Salutation Inn, Front Street, Tynemouth, Tyne And Wear",NE30 4BT,436966,569342,55.017258,-1.423424,North Tyneside
49212,The Foxhound PH,"The Foxhound, High Road, Orsett, Essex",RM16 3ER,564371,181918,51.512281,0.367351,Thurrock
595578,Penarth Yacht Club,"Penarth Yacht Club Esplanade, Penarth, Vale Of Glamorgan",CF64 3AU,318896,171253,51.434439,-3.168143,Vale of Glamorgan
357026,Charlton Marshall Lunch Club,"Parish Rooms The Close, Charlton Marshall, Dorset",DT11 9PA,390087,103796,50.833611,-2.14213,Dorset
438963,The Trumpet,"58 High Street, Bilston, Wolverhampton, West Midlands",WV14 0EP,394671,296233,52.5639,-2.080045,Wolverhampton
82497,The Star And Garter,"The Green, Chelveston, Wellingborough, Northamptonshire",NN9 6AJ,499168,269556,52.315164,-0.546653,North Northamptonshire
383858,Marina Bowling Club,Dawlish Marina Bowling Club Sandy Lane Dawlish Devon,EX7 0AF,296649,77345,50.586662,-3.461289,Teignbridge
466631,Bruntcliffe Working Mens Club,"Bruntcliffe Road, Morley, Leeds",LS27 0LY,424936,427689,53.744986,-1.623367,Leeds
259811,The Wheatsheaf,"Park Hill Road, Garstang, Preston, Lancashire",PR3 1EL,349140,445246,53.900871,-2.775534,Wyre
21253,The White Swan,"16 Market Place, Bungay, Suffolk",NR35 1AW,633605,289771,52.455898,1.436847,East Suffolk
440185,Broadway Bowling Club,"Kennel Lane, Broadway, Worcestershire",WR12 7DJ,409670,237431,52.035201,-1.860445,Wychavon
211943,Vale Royal Abbey Golf Club,"Vale Royal Abbey Golf Club Vale Royal Drive, Whitegate, Winsford, Cheshire",CW8 2BA,363873,369874,53.224672,-2.542578,Cheshire West and Chester
575104,Sunnyvale Camp Club,"Sunnyvale Holiday Camp, Foryd Road, Kinmel Bay, Rhyl",LL18 5AS,299257,380812,53.314623,-3.513636,Conwy
439544,KT's Catering @The Crown,"66 Bransford Road, Worcester",WR2 4EP,383734,254282,52.186539,-2.239338,Worcester
57976,The Shoulder At Hardstoft,"The Shoulder, Deep Lane, Hardstoft, Chesterfield",S45 8AE,443935,362991,53.162237,-1.344337,Bolsover
589010,The Hand Inn,"Park Street, Llanrhaeadr-Ym-Mochnant, Oswestry, Shropshire",SY10 0JJ,312527,326090,52.825213,-3.299616,Powys
594087,Crown Hotel,"Crown Hotel, Varteg Road, Varteg, Pontypool",NP4 8UG,326539,206090,51.748669,-3.065505,Torfaen
76196,Nell Gwyn,"117 Sutton Road, Mansfield, Nottinghamshire",NG18 5EX,452546,360293,53.137209,-1.215999,Mansfield
50034,The Black Horse Inn,"Chelmsford Road, White Roding, Dunmow",CM6 1RF,556527,213596,51.799099,0.268578,Uttlesford
265865,Dead Wax Social (Wet Sales),"18A Bond Street, Brighton",BN1 1RD,531101,104328,50.82366,-0.140055,Brighton and Hove
190497,Marske-by-the-Sea Cricket Club,"Windy Hill Lane, Marske By The Sea",TS11 7HB,463988,522027,54.589403,-1.011312,Redcar and Cleveland
424289,Heart Of England Club,"Heart Of England Social Club, Berkswell Road, Meriden, Solihull, Coventry, West Midla",CV7 7LB,424497,281401,52.430046,-1.641137,Solihull
269349,Craftyard,"23a Walton Street, Aylesbury, Buckinghamshire",HP20 1TZ,482065,213570,51.814744,-0.810916,Buckinghamshire
201307,Cotton Kier,"2-4 Eagley Brook Way, Bolton",BL1 8TS,372038,411264,53.597194,-2.423972,Bolton
180929,The Fuschia Lounge,"30 Navigation Point, Middleton Road, Hartlepool",TS24 0UG,451760,533278,54.691891,-1.19853,Hartlepool
62078,Apna Punjab,"193 Harrington Street, Derby",DE23 8NZ,435666,334016,52.902414,-1.4712,Derby
580454,Gurnos Sports Club Limited,"Gurnos Social Club Alder Grove, Gurnos, Merthyr Tydfil",CF47 9SF,304803,208135,51.763765,-3.38083,Merthyr Tydfil
334460,The Parsons Collar,"Solent Hotel, Rookery Avenue, Whiteley, Fareham",PO15 7AJ,452810,109197,50.879871,-1.250716,Winchester
10116,The Red Bull,"11 Barton Road, Cambridge, Cambridgeshire",CB3 9JZ,544222,257454,52.196458,0.108714,Cambridge
54526,The Family Tree,Derby Road Whatstandwell Matlock Derbyshire,DE4 5HG,433162,354372,53.085551,-1.506345,Amber Valley
481239,Area,"1 Burgess Street, Sheffield",S1 2HF,435287,387116,53.379723,-1.471007,Sheffield
594480,Pontypool Masonic Hall,"Masonic Hall, Trosnant Street, Pontypool",NP4 8AT,328567,200790,51.701287,-3.035045,Torfaen
75881,Coopers,"127 Leeming Lane North, Mansfield Woodhouse, Nottinghamshire",NG19 9HR,455007,364195,53.172033,-1.178548,Mansfield
210725,Music Hall Tap,"1 - 3 Music Hall Passage, Chester, Cheshire",CH1 2EU,340565,366376,53.191132,-2.891006,Cheshire West and Chester
527188,Windsor Buffet,45 Elm Row,EH7 4AH,326284,674721,55.959815,-3.182307,City of Edinburgh
372830,1610 King Alfred Sports Centre,"King Alfreds School, 185 Burnham Road, Highbridge",TA9 3EE,331318,148036,51.227364,-2.984976,Sedgemoor
261484,The Cabin Public House,"The Cabin Public House, 167 - 169 Elmer Road, Middleton-on-sea, West Sussex",PO22 6JA,498536,100073,50.791859,-0.603371,Arun
183668,Market Shaker,"Market Shaker, 32 - 34 Cloth Market, Newcastle Upon Tyne, Newcastle Upon Tyne",NE1 1EE,424905,564152,54.971366,-1.612484,Newcastle upon Tyne
348942,The Vittoria,"57 Whiteladies Road, Clifton, Bristol",BS8 2LY,357834,173875,51.462267,-2.60834,"Bristol, City of"
212922,The Ale Station,"The Ale Station Limited, 60 Chapel Street, Chorley",PR7 1BS,358573,417492,53.652265,-2.628244,Chorley
451290,The Maypole Yorkshire Dales Limited,"Maypole Inn, Main Street, Long Preston, Skipton",BD23 4PH,383136,458371,54.021061,-2.258885,Craven
102051,First Class Sports Bar,"125 Wembley Park Drive, Wembley",HA9 8HQ,519223,186212,51.562186,-0.281448,Brent
584556,Billycan,"Billycan, Central Hall Lower Frog Street, Tenby, Pembrokeshire",SA70 7HS,213406,200370,51.671032,-4.69984,Pembrokeshire
556969,Burnside Bowling Club,"1 Burnside Road, Rutherglen, Glasgow",G73 4RF,262410,659691,55.810826,-4.1971,South Lanarkshire
424939,Solihull Municpal Club,"Brick Kiln Lane, Solihull",B91 3LE,413849,278050,52.400291,-1.797878,Solihull
570164,Three horse shoes Whitchurch limited,"Three Horseshoes Merthyr Road, Whitchurch, Cardiff, Cardiff",CF14 1DL,316701,179491,51.508185,-3.201643,Cardiff
556624,Vulcan Tavern,"18 Green Street Lane, Ayr, South Ayrshire",KA8 8BL,233699,622501,55.467991,-4.632253,South Ayrshire
306942,Golden Ball,"The Golden Ball, 2 College Lane, Oxford, Oxfordshire",OX4 4LQ,453928,202869,51.721959,-1.220699,Oxford
233673,The White Bull,"White Bull Hotel, Church Street, Ribchester, Preston",PR3 3XP,365048,435181,53.811741,-2.532292,Ribble Valley
449896,Rastrick Bowling and Social Club,"Toothill Bank, Rastrick",HD6 3EZ,414093,421439,53.689205,-1.788072,Calderdale
273503,Houdini's Magic Bar,"6 St Peters Street, Canterbury, Kent",CT1 2AT,614772,157960,51.280275,1.078193,Canterbury
228063,The Charlestown Hotel,"The Charlestown Hotel, 204 Charlestown Road, Manchester",M9 7ED,387705,402905,53.522657,-2.186917,Manchester
328574,The Eight Bells Thai Cuisine,"THE EIGHT BELLS, EATON, ABINGDON",OX13 5PR,444763,203213,51.725856,-1.353324,Vale of White Horse
47548,Tom Peppers and Wahoo,"2 Marine Parade West, Clacton On Sea, Essex",CO15 1RH,617580,214565,51.787412,1.153343,Tendring
557630,Harleys Sky Bar,"1st Floor, 90 Main Street, Rutherglen, Glasgow",G73 2HZ,261305,661634,55.827954,-4.215709,South Lanarkshire
326237,Man Of Kent,"Man Of Kent P H, East Street, Tonbridge, Kent",TN9 1HG,559166,146632,51.196742,0.276634,Tonbridge and Malling
332476,"Volunteer, The","Church Street, Theale, Reading, Berkshire",RG7 5BX,463966,171203,51.436222,-1.081159,West Berkshire
556664,Ye Old Fort Bar,"39 South Harbour Street, Ayr, South Ayrshire",KA7 1JA,233505,622212,55.465331,-4.63513,South Ayrshire
363578,Seven Stars,"The Seven Stars, Alphington Road, Exeter, Devon",EX2 8JB,291465,91096,50.709334,-3.53852,Exeter
312427,The Old Oak,"40 Somerset Road, Redhill, Surrey",RH1 6LT,526652,149157,51.227561,-0.187554,Reigate and Banstead
244246,The Swan Hotel,"Swan Hotel, Corporation Street, St Helens",WA10 1ED,351363,395453,53.453566,-2.733882,St. Helens
470016,Oporto,"31 - 33 Call Lane, Leeds",LS1 7BT,430340,433316,53.795265,-1.540895,Leeds
155093,Royal British Legion (Twickenham) Limited,"95 Popes Grove, Twickenham",TW1 4JT,515866,172769,51.442073,-0.334264,Richmond upon Thames
252559,Warrington & District Society for Deaf,"11-13 Wilson Patten Street, Warrington",WA1 1PG,360422,387872,53.386192,-2.596523,Warrington
369716,Club Freelove,"40-42 Boulevard, Weston-Super-Mare",BS23 1NF,332223,161670,51.350045,-2.974618,North Somerset
60676,Syston Northfields Lawn Tennis Club,"Northfields, Syston",LE7 1HW,462878,311863,52.700799,-1.070939,Charnwood
195764,The Howard Arms,"The Licensee, Howard Arms, 183 Roker Avenue, Sunderland",SR6 0BS,439955,558039,54.915462,-1.378248,Sunderland
277125,The Greyhound Inn,"Cocking Causeway, Cocking, Midhurst, West Sussex",GU29 9QH,488227,119652,50.969539,-0.744883,Chichester
77712,Newark Railway Sports And Social Club,"Hatchets Lane, Newark On Trent, Nottinghamshire",NG24 2AD,480423,355033,53.086466,-0.800694,Newark and Sherwood
156725,Great guns social,"Goldsmiths Arms, 96, Southwark Bridge Road, London",SE1 0EF,532102,179823,51.501915,-0.098165,Southwark
326882,Chapel Place Wine & Gin Bar,"Chapel Place Wine Bar, 18 Chapel Place, Royal Tunbridge Wells, Kent",TN1 1YQ,558231,138846,51.127041,0.259837,Tunbridge Wells
179956,The Gold Medal,"Chowdene Bank, Low Fell, Gateshead",NE9 6JP,425540,559236,54.927161,-1.603005,Gateshead
582799,The Lord Caradoc,"69-73 Station Road, Port Talbot, W Glam",SA13 1NW,276648,189875,51.594175,-3.782159,Neath Port Talbot
77080,The White Hart,"2 Thorpe End, Melton Mowbray",LE13 1RB,475472,319134,52.764537,-0.882942,Melton
40473,Rayleigh Lodge,"The Chase, Rayleigh, Essex",SS6 8RW,581783,190452,51.583604,0.622411,Rochford
272028,The Crown,"Winslow Road, Granborough, Buckinghamshire",MK18 3NJ,476683,225221,51.920243,-0.886412,Buckinghamshire
106019,The Lord Homesdale,"Lord Homesdale, 184 Homesdale Road, Bromley",BR1 2QZ,541578,168719,51.399851,0.033854,Bromley
355154,Widemouth Manor Hotel,"Bude, Cornwall",EX23 0DE,220257,101113,50.781661,-4.55106,Cornwall
490137,Ship Inn,"23 The Village, Strensall, York",YO32 5XS,463212,460862,54.039869,-1.036245,York
375139,Royal Oak Exmoor,"The Royal Oak Inn, Halse Lane, Winsford, Somerset",TA24 7JE,290579,134805,51.10207,-3.564195,Somerset West and Taunton
40193,Exhibition Inn,"241 High Street, Great Wakering, Southend-On-Sea, Essex",SS3 0HZ,593729,187539,51.553467,0.793018,Rochford
272273,The Pavillion,"Hambleden Sports Ground, Rectory Hill, Hambleden, Buckinghamshire",RG9 6RP,478428,186533,51.57222,-0.869741,Buckinghamshire
360257,The Crown Inn,"The Crown Inn Hunger Hill, East Stour, Dorset",SP8 5JS,380460,123616,51.011589,-2.279901,Dorset
423358,The White Bear,"10 High Street, Whitchurch, Shropshire",SY13 1AR,354172,341508,52.968959,-2.683817,Shropshire
473930,Vittles & Co,"2-4 Brighowgate, Grimsby",DN32 0QX,526719,409055,53.562817,-0.088235,North East Lincolnshire
162741,The Hare,"Hare Tavern Public House, 505 Cambridge Heath Road, London",E2 9BU,534827,183400,51.533424,-0.057546,Tower Hamlets
272282,The Pineapple,"Lake End Road, Dorney, Buckinghamshire",SL4 6QS,492882,179700,51.508598,-0.663039,Buckinghamshire
9470,King Street Run P.H.,"King Street Run, 86-88 King Street, Cambridge, Cambridgeshire",CB1 1LN,545243,258692,52.207309,0.124159,Cambridge
569093,Old Market Tavern,"20 - 21 Trinity Street, Cathays, Cardiff, Cardiff",CF10 1BH,318252,176377,51.480419,-3.178577,Cardiff
15660,Chipperfield Clarendon Cricket Club,"Cricket Club, The Common, Chipperfield, Kings Langley",WD4 9BS,504265,201590,51.703366,-0.492575,Dacorum
302304,Emberton Park Sailing Club,"Emberton Park Sailing Club, Emberton Park, Olney Road, Emberton, Milton Keynes",MK46 5FJ,488673,250071,52.141825,-0.705669,Milton Keynes
114000,Black George Pub & Club,"Black George, 181 Uxbridge Road, West Ealing, London",W13 9AA,516835,180464,51.511044,-0.317786,Ealing
155419,The Marlborough,"The Marlborough, 46 Friars Stile Road, Richmond",TW10 6NH,518422,174340,51.455655,-0.296994,Richmond upon Thames
71417,45 West,"4A Hotel Street, Leicester",LE1 5AW,458654,304420,52.63437,-1.13477,Leicester
110677,The Folly,"41 Gracechurch Street, London",EC3V 0BT,532917,180882,51.51124,-0.086017,City of London
426563,Haberdasher's Arms,"Flashbrook Road, Knighton, Stafford",ST20 0QH,374645,326838,52.838451,-2.377838,Stafford
390913,Salisbury FC Limited,"Raymond Mcenhill Stadium, Partridge Way, Old Sarum, Salisbury",SP4 6PU,415062,133880,51.104016,-1.786249,Wiltshire
64389,George And Dragon,"43 Market Place, Ashbourne, Derbyshire",DE6 1EU,418030,346759,53.017831,-1.732684,Derbyshire Dales
509488,NORTHERN GOLF CLUB,"22 Golf Road, Aberdeen",AB24 5QB,394871,807681,57.159961,-2.086416,Aberdeen City
353927,Taphouse,"The Tap House, 1 Peterville, St Agnes, Cornwall",TR5 0QU,172345,50679,50.311993,-5.198861,Cornwall
25248,Battleaxes Public House,"Butterfly Lane, Elstree, Borehamwood, Hertfordshire",WD6 3AD,516747,197097,51.660542,-0.313528,Hertsmere
296596,Peacehaven Golf Club,"Brighton Road, Newhaven, East Sussex",BN9 9UH,543243,100895,50.789935,0.030882,Lewes
391815,The Queens Head,"North Street, Broad Chalke, Salisbury, Wiltshire",SP5 5EN,403857,125604,51.029789,-1.946371,Wiltshire
92869,Cheyne Walk Club,"2 Cheyne Walk, Northampton, NN1 5PU",NN1 5PU,475996,260466,52.23715,-0.888545,West Northamptonshire
216624,Canine Club,"45 Abbey Street, Accrington",BB5 1EN,376245,428595,53.753173,-2.36174,Hyndburn
59423,The Nurseryman,"177 Derby Road, Beeston, Nottinghamshire",NG9 3AE,452027,338060,52.937433,-1.227336,Broxtowe
450291,The Barge,"37 Mill Lane, Brighouse",HD6 1PA,414793,422792,53.701356,-1.777408,Calderdale
589021,The Horseshoes,"The Horseshoes Berriew, Berriew, Welshpool, Powys",SY21 8AW,622675,-5527598,NULL,NULL,Powys
82454,The Queens Head,"Queens Head, 49 Broad Green, Wellingborough, Northamptonshire",NN8 4LH,488804,268221,52.304938,-0.698997,North Northamptonshire
473655,Spiders Web,"Spiders Web, Carr Lane, Grimsby",DN32 8LN,529083,408536,53.55758,-0.052779,North East Lincolnshire
355140,White Horse Inn,"14 Newport Square, Launceston, Cornwall",PL15 8EL,232830,85187,50.64233,-4.365661,Cornwall
480980,The Three Swans,"23 Church Hill, Selby, North Yorkshire",YO8 4PL,461625,432482,53.785022,-1.066165,Selby
422934,The Black Horse,"The Black Horse Hotel, 4 Bridge Street, Bridgnorth, Shropshire",WV15 6AF,371964,292981,52.533974,-2.414741,Shropshire
64313,Derbyshire And Lancashire Gliding Club,"Camphill Farm, Camphill Lane, Great Hucklow, Derbyshire",SK17 8RQ,418220,378545,53.303552,-1.728054,Derbyshire Dales
372267,Royal Western Yacht Club,"Queen Annes Battery, Queen Anne Place, Plymouth, Devon",PL4 0TW,248666,53802,50.36462,-4.129138,Plymouth
49743,Kicking Dickey,"4 Ongar Road, Dunmow, Essex",CM6 1ES,563228,221066,51.864299,0.369189,Uttlesford
211048,Red Lion Inn,"Red Lion Inn Vicarage Lane, Little Budworth, Tarporley, Cheshire",CW6 9BY,359868,365339,53.18363,-2.601991,Cheshire West and Chester
48124,The Land Of Liberty,"Land Of Liberty Peace And Plenty Pu, Long Lane, Heronsgate, Rickmansworth",WD3 5BS,502345,194994,51.644444,-0.522294,Three Rivers
513537,Steeplejacks,"Steeple Jack's, 178 High Street, Montrose",DD10 8PH,371397,757735,56.710428,-2.46883,Angus
315723,The Dukes Head,"London Road, Dunton Green, KENT",TN13 2UR,551172,157209,51.293948,0.16678,Sevenoaks
231924,Dog & Partridge,"44 Friargate, Preston",PR1 2AT,353651,429602,53.760698,-2.704522,Preston
375547,The York Inn,"The York Inn, Honiton Road, Taunton",TA3 7RF,321292,112565,50.907168,-3.1208,Somerset West and Taunton
66732,The Jug & Bottle,"Jug And Bottle, Louth Road, Holton Le Clay Grimsby",DN36 5YN,528403,402004,53.499068,-0.065715,East Lindsey
186054,The Beacon,"The Beacon Hotel, Earsdon Road, Whitley Bay, Tyne And Wear",NE25 9PT,433182,572042,55.041786,-1.482286,North Tyneside
51797,The Peartree,"Hollybush Lane, Welwyn Garden City, Hertfordshire",AL7 4JJ,524442,211689,51.790025,-0.197126,Welwyn Hatfield
437745,Golden Silver Suite,"Pountney Street, Wolverhampton, West Midlands",WV2 4HX,391365,297733,52.57735,-2.128855,Wolverhampton
293627,The Fox Inn,"Fox Inn, Guildford Road, Bucks Green, Horsham",RH12 3JP,507774,133008,51.086266,-0.462619,Horsham
134608,Uxbridge And District Conservative C,"46 Harefield Road, Uxbridge",UB8 1PJ,505514,184739,51.551684,-0.479579,Hillingdon
486384,Church House Public House,"Barnsley Road, South Kirkby, Pontefract",WF9 3LA,445366,411120,53.594699,-1.316042,Wakefield
363025,Duke of York Inn,"The Duke Of York, 58 Sidwell Street, Exeter, Devon",EX4 6PH,292734,93265,50.729068,-3.521185,Exeter
327635,The Ragged Trousers,"44 The Pantiles, Royal Tunbridge Wells, Kent",TN2 5TN,558080,138759,51.126304,0.257647,Tunbridge Wells
442554,Dodworth Tap,"10 Station Road, Dodworth",S75 3JA,431439,405264,53.543082,-1.527042,Barnsley
155086,Rose of York,"Rose Of York, Petersham Road, Richmond",TW10 6UY,518211,173777,51.450639,-0.300203,Richmond upon Thames
260017,Crown And Anchor,"Crown And Anchor, 33 High Street, Shoreham-by-sea, West Sussex",BN43 5DD,521494,104989,50.831703,-0.276166,Adur
294258,Cowes Combined Services And Social Club,"Royal British Legion, 85 High Street, Cowes, Isle Of Wight",PO31 7AJ,449601,96281,50.764008,-1.298083,Isle of Wight
21151,The Plough,"Market Lane, Blundeston, Lowestoft, Suffolk",NR32 5AN,651738,297528,52.517431,1.709005,East Suffolk
549556,Railway Inn,"98 Lauchope Street, Chapelhall, North Lanarkshire",ML6 8SW,278052,662850,55.843404,-3.949094,North Lanarkshire
431414,The Home Guard Club,"Home Guard Club And Sport Ground, Main Street, Tiddington, Stratford-upon-Avon",CV37 7AY,422390,255863,52.200547,-1.673815,Stratford-on-Avon
65055,Admiral Benbow,"Admiral Benbow, The Promenade, Chapel St Leonards Skegness",PE24 5BQ,556277,372076,53.222749,0.339377,East Lindsey
440369,Droitwich Rugby Football Club,"The Glynn Mitchell Memorial Ground, Hanbury Road, Droitwich Spa",WR9 8PR,390830,263220,52.267061,-2.135791,Wychavon
41117,Hare and Hounds Harlton,"60 High Street, Harlton, Cambridgeshire",CB23 1ES,538860,252309,52.151614,0.028199,South Cambridgeshire
91137,The White Lion,"The White Lion, 31 High Street, Colsterworth, Lincolnshire",NG33 5NE,493085,324184,52.807175,-0.620547,South Kesteven
326609,The Medway Inn,"2 High Street, Wouldham, Rochester, Kent",ME1 3XB,571283,163807,51.347525,0.458112,Tonbridge and Malling
8929,Boathouse Public House,"The Boathouse, 14 Chesterton Road, Cambridge, Cambridgeshire",CB4 3AX,545222,259407,52.213738,0.124159,Cambridge
324143,The Olive Tree,"11 Latimer Street, Romsey, Hampshire",SO51 8DF,435351,121254,50.989607,-1.497703,Test Valley
448989,Drink?,"15 Market Street, Hebden Bridge",HX7 6EU,399045,427206,53.741233,-2.015958,Calderdale
325153,Quart in a Pint Pot,"28 Charlotte Square, Margate, Kent",CT9 1LR,635575,170512,51.384734,1.384245,Thanet
587767,Golden Lion Inn,"Newbridge On Wye, Llandrindod Wells, Powys",LD1 6LN,301527,258455,52.215477,-3.442753,Powys
189412,The Grapes,"1 St Marys Chare, Hexham, Northumberland",NE46 1NQ,393596,563998,54.970549,-2.101569,Northumberland
285882,Four Winds Guest House,"17 Station Road, Park Gate, Southampton",SO31 7GJ,451512,108455,50.873307,-1.269269,Fareham
136611,The Swan Inn,"Swan Inn, Swan Street, Isleworth",TW7 6XA,516497,175766,51.468876,-0.324203,Hounslow
396050,Hay Mills Social Club,"1191 Coventry Road, South Yardley, Birmingham",B25 8DF,411619,284993,52.462757,-1.830425,Birmingham
420493,Tippity Green Gold Club Limited,"Sandwell Pines Golf Centre, Tippity Green, Rowley Regis",B65 9AA,396709,287802,52.488132,-2.049893,Sandwell
292426,The Heron,"The Heron, Havant",PO9 2EN,471988,107870,50.865864,-0.978418,Havant
42736,The Kings Head,"Kings Head, Hempnall Road, Woodton, Norfolk",NR35 2LR,629431,293965,52.495304,1.378414,South Norfolk
570067,The Packet,"The Packet, 95 Bute Street, Butetown, Cardiff, Cardiff",CF10 5AB,319150,174591,51.464492,-3.165239,Cardiff
545938,Seaforth Association Club,Academy Street  Elgin  Moray,IV30 1LJ,321678,862723,57.647587,-3.313848,Moray
577912,The Crown and Liver,"Crown & Liver Inn, The Highway, Hawarden, Flintshire",CH5 3DN,330339,366355,53.189701,-3.044023,Flintshire
464852,Scissett Wmc,"Scissett Working Mens Club, 118 Wakefield Road, Scissett, Huddersfield",HD8 9HU,425123,410692,53.592199,-1.621916,Kirklees
523720,Dirty Dick's,159 Rose Street,EH2 4LS,324845,673824,55.951535,-3.2051,City of Edinburgh
591565,Ystrad Fechan Bowls Club,"Station Road, Treorchy",CF42 6HL,295737,196370,51.656405,-3.508629,Rhondda Cynon Taf
465214,Th Alma,"Gillroyd Lane, Linthwaite, Huddersfield",HD7 5TP,410548,414344,53.625526,-1.841991,Kirklees
58961,Foresters Arms,"254 Main Street, Newthorpe, Nottinghamshire",NG16 2DN,448279,346285,53.011712,-1.281873,Broxtowe
177737,The Crossroads Inn,"Plawsworth Road, Sacriston, Durham",DH7 6HJ,424206,547126,54.818414,-1.624832,County Durham
594089,Crows Nest,"Crows Nest, Llangorse Road, Llanyravon, Cwmbran",NP44 8HU,330460,194549,51.64542,-3.006413,Torfaen
402096,Yardley Arms,"Yardley Fields Road, Birmingham",B33 8RA,413584,286896,52.479823,-1.801416,Birmingham
277083,The Crab Pot,"153 High Street, Selsey, Chichester, West Sussex",PO20 0QB,485326,93177,50.731953,-0.792335,Chichester
298634,Carpenters Arms,"Carpenters Arms, 13 Cossack Street, Rochester, Kent",ME1 2EF,574606,167420,51.378982,0.507552,Medway
61027,Aruba,"6 Corporation Street, Chesterfield",S41 7TP,438581,371247,53.236863,-1.423423,Chesterfield
201705,Henighans,"Horse Shoe Inn, 71 Lever Street, Little Lever, Bolton",BL3 1BA,375278,407602,53.564452,-2.374726,Bolton
409940,Premier Bar at Uttoxeter Racecourse,"Uttoxeter Racecourse, Wood Lane, Uttoxeter",ST14 8BD,409926,333201,52.896164,-1.853894,East Staffordshire
488455,The Whinney Moor,"The Duke Of Wellington Public House, 220 Horbury Road, Wakefield",WF2 8RE,431499,419532,53.671319,-1.524685,Wakefield
161146,Good Samaritan,"87 Turner Street, London",E1 2AE,534622,181606,51.517343,-0.061186,Tower Hamlets
389960,Lake Estate Club,"Hungerford Lane, Lake, Salisbury, Wiltshire",SP4 7BN,413054,138916,51.149358,-1.814747,Wiltshire
340284,Revolution Bath,"Revolution Bar 2 York Buildings, George Street, City Centre, Bath",BA1 2EB,374952,165154,51.384873,-2.361325,Bath and North East Somerset
158560,The ship aground public house,"33, Wolseley Street, London",SE1 2BP,533979,179740,51.500718,-0.071156,Southwark
40775,Bar Hill Sports And Social Club,"Bar Hill Sports And Social Club The Spinney, Bar Hill, Cambridgeshire",CB23 8SU,622675,-5527598,NULL,NULL,South Cambridgeshire
206280,The Redfern Inn,"Redfern Inn, Kingmoor Road, Carlisle",CA3 9PS,339014,557372,54.907321,-2.952701,Carlisle
369734,Congresbury Recreation Club,"Congresbury Recreation Club, Stonewell Drive, Congresbury, Bristol",BS49 5DW,343792,163399,51.366858,-2.808781,North Somerset
234947,Quirky Catering @ The Flying Horse Hotel,"The Flying Horse Hotel, 37 Packer Street, Rochdale",OL16 1NJ,389685,413265,53.615818,-2.157399,Rochdale
233111,Brown Cow,"Brown Cow Inn, 42-44 Moor Lane, Clitheroe, Lancashire",BB7 1AJ,374268,441512,53.869168,-2.392806,Ribble Valley
32621,White Horse Inn,"The White Horse, 26 High Street, Maldon, Essex",CM9 5PJ,584861,207017,51.731382,0.675539,Maldon
280478,Tilmanstone Colliery Sports Club,"Tilmanstone Colliery Sports Ground, Adelaide Road, Eythorne, Kent",CT15 4AN,628092,149924,51.202967,1.263749,Dover
55344,Red Lion,134 Church Lane,NG16 5HD,447373,351317,53.057006,-1.294652,Ashfield
28181,Ipswich And Suffolk Club,"Archdeacon House, Northgate Street, Ipswich, Suffolk",IP1 3BX,616457,244750,52.058834,1.156036,Ipswich
98563,Mill Hill Services Club,"Mill Hill Services Club Ltd, 11 Hartley Avenue, London",NW7 2HX,521714,192158,51.615101,-0.243484,Barnet
184737,Three Bulls Head,"57 - 59 Percy Street, Newcastle Upon Tyne, Newcastle Upon Tyne",NE1 7RN,424635,564630,54.975675,-1.616662,Newcastle upon Tyne
383948,Nobody Inn,Doddiscombsleigh Exeter,EX6 7PS,285549,86569,50.667515,-3.620884,Teignbridge
72199,Droglites,"Leicester Rugby Football Club, Aylestone Road, Leicester",LE2 7TR,458708,303273,52.624045,-1.134167,Leicester
436660,Round for Dinner,"Alderson House, 23 High Street, Warwick",CV34 4AX,428098,264750,52.280182,-1.589565,Warwick
452595,Ivanhoe Working Mens Club,"Ivanhoe Road, Conisbrough, Doncaster",DN12 3JT,450711,398851,53.483942,-1.237277,Doncaster
476395,Chequers Inn,"Pleasley Road, Whiston, Rotherham",S60 4HB,444542,390124,53.406062,-1.331465,Rotherham
120762,Plume of Feathers,"Plume Of Feathers, 19 Park Vista, Greenwich, Greenwich",SE10 9LZ,538892,177781,51.481939,-0.001191,Greenwich
448043,The Snooty Fox (Bar Only),"Colne Road, Oakworth, Keighley",BD22 7PB,403171,438863,53.845999,-1.953287,Bradford
468312,Halfway House,"Bruntcliffe Road, Morley, Leeds",LS27 0BL,425618,426856,53.737474,-1.61311,Leeds
173913,Bar One,"28-30 Front Street, Consett",DH8 5AQ,410858,550700,54.850977,-1.83242,County Durham
508255,ALL BAR ONE,"Unit B, Marischal Square, Broad Street, Aberdeen",AB10 1BL,394216,806396,57.14841,-2.097231,Aberdeen City
213179,Anchor Vaults,"25 Market Place, Whitehaven, Cumbria",CA28 7JB,297185,518012,54.546882,-3.590947,Copeland
354053,The Brig,"The Brig 30, Ground Floor Shop, 30 Arwenack Street, Falmouth",TR11 3JB,181038,32582,50.152767,-5.066512,Cornwall
509005,GRAPE AND GRAIN,"31 Thistle Street, Aberdeen",AB10 1UY,393309,805894,57.143888,-2.112207,Aberdeen City
548085,Calderbraes Golf Club,"Calderbraes Golf Club House, Roundknowe Road, Uddingston, North Lanarkshire",G71 6NG,268538,662298,55.835941,-4.10065,North Lanarkshire
305259,FLEUR DE LYS,"PILLEY STREET, PILLEY, LYMINGTON",SO41 5QG,432742,98234,50.782762,-1.536943,New Forest
450879,Craven Heifer,"Craven Heifer Hotel, Main Road, Stainforth, Settle",BD24 9PB,382147,467284,54.101128,-2.274495,Craven
33419,The De La Pole Arms,"De La Pole Arms, Church Road, Wingfield, DISS",IP21 5RA,622959,276886,52.344696,1.271866,Mid Suffolk
204070,All the Shapes,"8 Warwick Street, Prestwich, Manchester",M25 3HN,381151,403980,53.532132,-2.285836,Bury
449736,Octave Club,"54 Southgate, Elland",HX5 0DQ,410839,420977,53.685138,-1.837362,Calderdale
259380,MARINE HALL,"The Esplanade, Fleetwood, Lancashire",FY7 6HF,333593,448370,53.927182,-3.01279,Wyre
470174,Pendas Arms,"Naburn Approach, Whinmoor, Leeds",LS14 2DF,435953,437606,53.833483,-1.455189,Leeds
370741,The Dundry Inn,"Dundry Inn, Church Road, Dundry, Bristol",BS41 8LH,355896,166775,51.398292,-2.635362,North Somerset
380945,Crown & Sceptre Inn,"The Crown And Sceptre Inn, 98 Horns Road, Stroud, Gloucestershire",GL5 1EG,622675,-5527598,NULL,NULL,Stroud
449716,Northowram Conservative Club,"1 Lydgate, Northowram",HX3 7EJ,411310,427070,53.739893,-1.83001,Calderdale
392007,Tidworth Royal British Legion,"The Royal British Legion, Pennings Road, Tidworth, Wiltshire",SP9 7SU,423587,148583,51.235946,-1.66353,Wiltshire
113064,Soulful Cellar,"90B High Street, Croydon",CR0 1ND,532337,165180,51.37027,-0.100234,Croydon
594602,The Bridgend Inn,"The Bridgend Inn, Hanbury Road, Pontnewynydd, Pontypool",NP4 6QN,326747,201708,51.709304,-3.061569,Torfaen
44469,The Falcon Public House,"The Falcon, 45 Marine Parade, Southend-On-Sea, Essex",SS1 2EN,588918,185099,51.533183,0.722399,Southend-on-Sea
182184,The Pig Iron,"37 Corporation Road, Middlesbrough",TS1 1LT,449688,520406,54.576432,-1.232851,Middlesbrough
513645,The Portcullis Bar,"The Portcullis, Conon Terrace, Arbroath",DD11 5AP,364555,741891,56.567634,-2.578385,Angus
583835,Newport Masonic Hall Ltd,Masonic Hall 109 Lower Dock Street Newport South Wales,NP20 2AG,331628,187489,51.582085,-2.988155,Newport
78434,Elm Tree Inn,"Mansfield Road, Heath, Chesterfield",S44 5SE,444524,367147,53.199535,-1.334951,North East Derbyshire
515280,The Cairn,"Cairn, 183 West Stirling Street, Alva, Clackmannanshire",FK12 5BH,287925,697034,56.152784,-3.805757,Clackmannanshire
281544,The Three Horseshoes,"Three Horseshoes, Cakers Lane, East Worldham, Alton, GU34 3AE",GU34 3AE,474660,138089,51.137206,-0.934251,East Hampshire
538629,Thistle Tavern,"1346 Duke Street, Glasgow",G31 5QG,262516,664243,55.851725,-4.197714,Glasgow City
245253,Grove Lane Baptist Church,"Pingate Lane South, Cheadle Hulme, Cheadle, Stockport",SK8 7NP,387468,384720,53.359196,-2.189761,Stockport
287000,Littlestone  Golf Club,"Littlestone Golf Club, St Andrews Road, Littlestone, Kent",TN28 8RB,608251,124856,50.985429,0.96571,Folkestone and Hythe
58055,Admiral Nelson,"Admiral Nelson, Main Road, Benington",PE22 0BT,539774,346532,52.99788,0.081261,Boston
108768,The Gipsy Queen,"166 Malden Road, London",NW5 4BS,528035,185163,51.550832,-0.154778,Camden
66955,Trusty'S Family Club,"Trusville Holiday Village, Sutton Road, Trusthorpe Mablethorpe",LN12 2PE,551455,384065,53.331816,0.27292,East Lindsey
119114,The Occasional Half,"Public House, 67-77 Green Lanes, LONDON",N13 4TD,530960,191840,51.61017,-0.110123,Enfield
338082,Brooksteed Alehouse,"Brooksteed Alehouse, 38 South Farm Road, Gaisford, Worthing, West Sussex",BN14 7AE,514306,103495,50.819729,-0.378656,Worthing
528111,Railway Hotel,"2 Broad Street, Denny",FK6 6DY,281336,682713,56.022583,-3.905416,Falkirk
90753,Red Lion Public House,"Red Lion Inn, 48 King Street, West Deeping, Lincolnshire",PE6 9HP,511008,308984,52.667212,-0.359908,South Kesteven
570530,AJs Tavern,"21 Maescanner Road, Llanelli, Carmarthenshire",SA14 8LR,252907,201100,51.689329,-4.129382,Carmarthenshire
510858,Dee Jays Nightclub,"Denmark Street, Fraserburgh, Aberdeenshire",AB43 9EY,399475,867242,57.694995,-2.010459,Aberdeenshire
208505,The Hawk Inn,"Hawk Inn, 137 Crewe Road, Haslington",CW1 5RG,373728,356206,53.102397,-2.393845,Cheshire East
526267,Stable Bar,30 Frogston Road East,EH16 6TJ,326213,668379,55.902853,-3.181709,City of Edinburgh
82353,The George,"5 Stamford Road, Weldon, Corby, Northamptonshire",NN17 3JL,492745,289594,52.496376,-0.635302,North Northamptonshire
252921,Eagle And Child Inn,"Maltkiln Lane, Bispham, Lancashire",L40 3SG,348964,413403,53.614665,-2.772938,West Lancashire
329952,British Queen,"The Triangle, Lower Willingdon, East Sussex",BN20 9PG,558473,103276,50.80737,0.247813,Wealden
324186,The Wheatsheaf,"Braishfield Road, Braishfield, Romsey, Hampshire",SO51 0QE,437449,124432,51.018051,-1.467486,Test Valley
396128,Highcroft Sports & Social Club Ltd,"106 Slade Road, Stockland Green, Birmingham",B23 7PW,409686,290514,52.512431,-1.858706,Birmingham
56582,Turks Head,"The Turks Head, Grove Street, Retford, Nottinghamshire",DN22 6LA,470754,381142,53.322492,-0.939251,Bassetlaw
549674,Scottish Lithuanian Social Club,"79A Calder Road, Bellshill, Lanarkshire",ML4 1PX,274411,660242,55.819054,-4.005977,North Lanarkshire
18774,Three Tuns,"36 London Road, Bishops Stortford, Hertfordshire",CM23 5NF,549231,220850,51.866266,0.165979,East Hertfordshire
77191,Beaumond Cross Hotel,"13 London Road, Newark On Trent, Nottinghamshire",NG24 1TN,479903,353645,53.07407,-0.808785,Newark and Sherwood
223278,Yates Wine Lodge,"Yates Wine Lodge Hood Street, Liverpool, Liverpool",L1 1RH,334758,390548,53.407703,-2.982879,Liverpool
90973,The Cellar Bar (Stamford Arts Centre),"27-27a St Marys Street, Stamford, Lincolnshire",PE9 2DL,503102,307076,52.651617,-0.477367,South Kesteven
477909,The Mill Dam,"Grayson Road, Wingfield, Rotherham",S61 4HH,441342,395469,53.454362,-1.378897,Rotherham
578072,White Lion,"White Lion Inn, Hawarden Road, Hope, Flintshire",LL12 9NF,330928,358441,53.118651,-3.033497,Flintshire
414126,CANAL TAVERN,"Canal Tavern, Hardingswood Road, Kidsgrove, Staffordshire",ST7 1EF,383491,354662,53.088912,-2.247935,Newcastle-under-Lyme
409108,Three Crowns Tap House,"166 High Street, Dudley",DY1 1QS,394117,290076,52.508544,-2.088106,Dudley
420936,Bell Inn,"Tong, Shifnal, Shropshire",TF11 8PS,379151,308089,52.670097,-2.309749,Shropshire
235345,The Olde Queen Anne,"Queen Anne Hotel, 26 Market Place, Heywood, Lancashire",OL10 4NL,385536,410816,53.593716,-2.220002,Rochdale
324191,The White Horse,"Winchester Road, Romsey, Hampshire",SO51 9BQ,440115,123197,51.006766,-1.429617,Test Valley
141078,The Scarsdale,"Public House, 23A Edwardes Square, LONDON",W8 6HE,525087,179180,51.49773,-0.19939,Kensington and Chelsea
172764,Avalon,"8 Blackwellgate, Darlington",DL1 5HL,428759,514391,54.523996,-1.55719,Darlington
87616,Rancliffe Arms,"139 Loughborough Road, Bunny, Nottinghamshire",NG11 6QT,458423,329595,52.860681,-1.133699,Rushcliffe
155305,The Abercorn Arms,"Abercorn Arms, 76-78 Church Road, Teddington",TW11 8EY,515617,171288,51.428822,-0.338328,Richmond upon Thames
474203,Brigg Ex Servicemans Club,"Coney Court, Brigg, North Lincolnshire",DN20 8EX,499967,407271,53.55256,-0.492525,North Lincolnshire
176201,Millfield Social Club,"Crook Town AFC, West Road, Crook",DL15 9PW,416095,535396,54.713318,-1.751693,County Durham
348931,The Tythings,"Tythings, Queens Road, Bishopsworth, Bristol",BS13 8LB,356966,168290,51.411976,-2.620157,"Bristol, City of"
550503,Fusion,"10-12 Ayre Road, Kirkwall",KW15 1QX,344753,1011211,58.984452,-2.962898,Orkney Islands
95294,The Fitzgerald Arms,"Fitzgerald Arms, Church Street, Naseby, West Northamptonshire",NN6 6DA,468853,278183,52.397341,-0.98951,West Northamptonshire
292425,The Heroes,"The Heroes, Waterlooville",PO7 7DZ,468265,109442,50.880447,-1.031035,Havant
548009,Broomknowe Bar,"6 Broomknoll Street, Town Centre, Airdrie",ML6 6BN,276132,665376,55.865588,-3.98089,North Lanarkshire
401305,The Three Tuns,"19 High Street, Sutton Trinity, Birmingham, Birmingham",B72 1XS,412071,296483,52.566044,-1.823349,Birmingham
479855,Scarborough Flyer,"4 - 13 St Nicholas Street, Scarborough, North Yorkshire",YO11 2HF,504328,488583,54.282237,-0.399035,Scarborough
420420,The Royal British Legion,"The Royal British Legion, Church Hill, Wednesbury",WS10 9DF,398743,295148,52.554171,-2.019969,Sandwell
445216,Eccleshill United Sports & Social Club,"Plumpton Park, Kingsway, Bradford",BD2 1PN,416744,436970,53.828718,-1.747093,Bradford
453925,The Warehouse,"27 North Bridge Road, Doncaster",DN5 9AD,456989,403726,53.527124,-1.141796,Doncaster
382012,Deers Leap,"141 Penhill Drive, Penhill, Swindon",SN2 5DX,415106,188103,51.591578,-1.783337,Swindon
528755,Auchterderran Golf Club,Woodend Road Cardenden Lochgelly Fife,KY5 0NH,321080,696355,56.153331,-3.272006,Fife
393522,Bottle Of Sack,"2 Birmingham Road, Sutton Vesey, Birmingham, Birmingham",B72 1QQ,411819,295601,52.55812,-1.827098,Birmingham
391801,The Pheasant Inn,"Salt Lane, Salisbury, Wiltshire",SP1 1DT,414533,130174,51.070723,-1.793951,Wiltshire
580357,Court Of Requests,"Court Of Requests Inn, 9 Dynevor Street, Georgetown, Merthyr Tydfil",CF48 1AY,304513,206336,51.747563,-3.384537,Merthyr Tydfil
525373,Nuffield Health & Well Being,"Unit E Dundee Street, Edinburgh",EH11 1AW,324128,672639,55.940777,-3.216245,City of Edinburgh
420275,The Bellwether,"The Bellwether, 3 Walsall Street, Wednesbury",WS10 9BZ,398892,295098,52.553723,-2.017772,Sandwell
95216,The Brampton Halt,"Brampton Halt, Pitsford Road, Chapel Brampton, West Northamptonshire",NN6 8BA,473485,266642,52.293006,-0.923966,West Northamptonshire
287127,Ocean Inn,"2 High Street, Dymchurch, Kent",TN29 0NG,610080,129206,51.023819,0.994246,Folkestone and Hythe
362565,The Strand,"1 Parade, Exmouth",EX8 1RS,300080,81074,50.620792,-3.41384,East Devon
95304,The Fox and Hounds,"44 High Street, Whittlebury",NN12 8XJ,469170,243611,52.086541,-0.991913,West Northamptonshire
587343,Clwb Rygbi Ystradgynlais Ltd,"Ynyscedwyn Road, Ystradgynlais, Swansea",SA9 1BH,278398,209646,51.772237,-3.763802,Powys
252051,Royal British Legion Club Ltd,"Stockport Road, Warrington",WA4 2TB,364705,387041,53.379041,-2.532033,Warrington
595921,The Old White Hart,"Old White Hart Inn Wine Street, Llantwit Major, Vale Of Glamorgan",CF61 1RZ,296680,168795,51.408725,-3.486901,Vale of Glamorgan
386205,Seamus O'Donnells,"28 Victoria Parade, Torquay, Devon",TQ1 2BD,291885,63273,50.459293,-3.524474,Torbay
274172,Teatros Bar,"Theatre House, 4-6 Orange Street, Canterbury",CT1 2JA,614897,157963,51.280264,1.079985,Canterbury
552439,Columba Club,"3 Clyde Street, Renfrew, Renfrewshire",PA4 8SL,250968,668425,55.885827,-4.384307,Renfrewshire
314789,The Crab & Anchor Public House,"The Crab And Anchor, 5 Southwood Village Centre, Links Way, Farnborough",GU14 0NA,484665,155386,51.291332,-0.787202,Rushmoor
98849,Poolside Manor Ltd,"Poolside Manor,  Lyndhurst Gardens, London",N3 1TD,524586,190733,51.601667,-0.202524,Barnet
590622,Mount Pleasant Hotel,"Penrhiwceiber Road, Mountain Ash",CF45 3UF,305258,198260,51.675091,-3.371551,Rhondda Cynon Taf
260443,Angmering Sports & Social Club,"Sports Pavilion Decoy Drive, Angmering, West Sussex",BN16 4DN,506655,105100,50.835613,-0.486774,Arun
313203,Royal Sovereign,"15 Sea Road, Bexhill, East Sussex",TN40 1EE,574529,107491,50.840627,0.47748,Rother
324,Hare And Hounds,"Hare and Hounds, Heath Road, East Bergholt, COLCHESTER",CO7 6RL,607633,235423,51.978451,1.021879,Babergh
88482,Burton on Trent Golf Club,"Ashby Road East, Bretby, Burton On Trent, Derbyshire",DE15 0PS,428140,322413,52.798549,-1.584083,South Derbyshire
585758,Nos Da,"Nos Da, 2 Victoria Road, Milford Haven, Pembrokeshire",SA73 3AB,190047,205979,51.713153,-5.040546,Pembrokeshire
91500,Fox and Hounds,"Fox And Hounds, 9 Station Road, Reepham, Lincoln",LN3 4DN,504014,373799,53.251021,-0.442499,West Lindsey
178964,Dunston Masonic Hall,"Dunston Masonic Lodge Masonic, 29 Holmside Avenue, Dunston, Gateshead",NE11 9TJ,423086,561645,54.948918,-1.641104,Gateshead
267949,The Pond,"49 Gloucester Road, Brighton",BN1 4AQ,531148,104693,50.82693,-0.139258,Brighton and Hove
277235,The Wheatsheaf,"Wool Lane, Midhurst, West Sussex",GU29 9BX,488602,121474,50.985862,-0.739086,Chichester
595945,The Star Inn,"Star Inn Station Road, Dinas Powys, Vale Of Glamorgan",CF64 4DE,315326,171229,51.433709,-3.219468,Vale of Glamorgan
543836,Buckley's At The Gourock Golf Club,"Cowal View, GOUROCK",PA19 1HD,222467,676714,55.950557,-4.844849,Inverclyde
262855,Vine Inn,"76 High Street, Tenterden, Kent",TN30 6AU,588277,133296,51.068105,0.685859,Ashford
448030,The Royal,"5 Wooller Road, Bradford",BD12 0RR,415568,428329,53.7511,-1.765393,Bradford
548134,Carsons,"4-6 Whifflet Street, Whifflet, Coatbridge",ML5 4EL,273602,664055,55.853065,-4.020668,North Lanarkshire
324066,The Black Horse,"West Tytherley, Salisbury, Hampshire",SP5 1NF,427495,130184,51.070332,-1.608955,Test Valley
108158,Princess of Wales,"22 Chalcot Road, London",NW1 8LL,528120,184006,51.540423,-0.153959,Camden
52060,Breckland Club,"The Breckland Club, Village Hall, Marks Lane, Santon Downham",IP27 0TW,581135,287626,52.456543,0.664451,West Suffolk
312338,Tadworth Social Club,"Tadworth Village Hall, Dorking Road, Walton On The Hill, Surrey",KT20 5SA,523756,155966,51.289389,-0.226646,Reigate and Banstead
373050,Burnham on Sea Bowling Club Ltd,"St Andrews Road, Burnham on Sea",TA8 2AU,330680,149350,51.239098,-2.994366,Sedgemoor
205238,The Waggon & Horses,"Waggon And Horses, 360 Bolton Road, Tottington, Greater Manchester",BL8 4JL,375962,414991,53.630888,-2.364972,Bury
160441,Boro' of Bethnal Green Working Mens Club,"Bethnal Green Working Mens Club, 42-46 Pollard Row, London",E2 6NB,534442,182686,51.527091,-0.063367,Tower Hamlets
89356,Gedney Hill Golf Club,"West Drove North Monkwise Golf Club, Gedney Hill, Spalding",PE12 0NT,534214,312661,52.695004,-0.015457,South Holland
272231,The Nags Head,"London Road, Little Kingshill, Great Missenden, Buckinghamshire",HP16 0DG,490077,200227,51.693578,-0.69818,Buckinghamshire
20312,Oddfellows Arms,"6 Nightingale Road, Lowestoft, Suffolk",NR33 7AU,653781,290291,52.451572,1.733541,East Suffolk
207202,George & Dragon,"George And Dragon, Middlewich Road, Holmes Chapel",CW4 7EA,376071,367367,53.202831,-2.359689,Cheshire East
93543,Greatworth Inn,"The Inn, Chapel Road, Greatworth",OX17 2DT,455132,242427,52.07747,-1.196973,West Northamptonshire
410447,Bells Inn,"Almeley, Hereford",HR3 6LF,333363,251718,52.159686,-2.975538,"Herefordshire, County of"
350245,The Kemble,"Kemble Brewery Inn, Fairview Street, Cheltenham, Gloucestershire",GL52 2JF,395525,222628,51.902175,-2.066446,Cheltenham
101595,Blue Ginger,"383 Kenton Road, Harrow",HA3 0XS,517524,188908,51.586781,-0.305045,Brent
263523,Longbridge Mill,"The Longbridge Mill, Reading Road, Sherfield-on-Loddon, Hook",RG27 0DL,468307,158181,51.318654,-1.021216,Basingstoke and Deane
356343,Admiral Hardy,"The Admiral Hardy Chickerell Road, Weymouth, Dorset",DT4 0QU,366520,78786,50.607822,-2.474496,Dorset
270679,Marlow Rugby Union,"Marlow Rugby Club, Riverwoods Drive, Marlow, Buckinghamshire",SL7 1QU,486273,186245,51.568479,-0.756642,Buckinghamshire
435416,The Old Irish Harp,"582 Chester Road, Aldridge, Walsall, West Midlands",WS9 0LP,407568,300655,52.60363,-1.889687,Walsall
36930,Deniz's Social Club,"First Floor, 119 - 121 Magdalen Street, Norwich",NR3 1LN,623173,309486,52.637189,1.29683,Norwich
167556,The Northcote,"2 Northcote Road, London",SW11 1NT,527420,175104,51.460578,-0.167268,Wandsworth
555780,Cambusdoon Sports Club,"Ayr Cricket Club, Alloway, Ayr, South Ayrshire",KA7 4PY,233409,618374,55.43085,-4.634348,South Ayrshire
55850,Cuckney Cricket Club,"Cuckney Cricket Ground, Langwith Road, Cuckney, Nottinghamshire",NG20 9JD,453802,371296,53.235979,-1.195379,Bassetlaw
441047,The Fleece,"The Cross, Bretforton, Evesham, Worcestershire",WR11 7JE,409304,243774,52.092244,-1.86561,Wychavon
433485,The Venue,"The Local Queen Street, Madeley, Telford, Shropshire",TF7 4BL,370370,304444,52.636925,-2.439269,Telford and Wrekin
456717,The Bear Inn,"61 Market Place, South Cave, Brough",HU15 2AS,492300,431289,53.769784,-0.601101,East Riding of Yorkshire
272329,The Red Lion Public House,"The Red Lion, Thame Road, Longwick, Buckinghamshire",HP27 9SG,478899,204912,51.737373,-0.858805,Buckinghamshire
577999,The White Horse Inn,"White Horse Inn, The Square, Cilcain, Flintshire",CH7 5NN,317700,365173,53.177273,-3.232834,Flintshire
274190,The Artichoke,"Artichoke Inn, Rattington Street, Chartham, Canterbury",CT4 7JQ,610867,154884,51.254121,1.020458,Canterbury
76078,Ladybrook Hotel,"190 Ladybrook Lane, Mansfield, Nottinghamshire",NG18 5JJ,452386,361203,53.145404,-1.218242,Mansfield
116631,The Duke Of York,"The Duke Of York, 161 Uxbridge Road, Hanwell, London",W7 3SP,515428,180219,51.50912,-0.338132,Ealing
409515,COOPERS TAVERN,"Coopers Tavern, 43 Cross Street, Burton upon Trent",DE14 1EG,424525,323076,52.804693,-1.637643,East Staffordshire
525409,One Canon Mills,"1 Canonmills, Edinburgh",EH3 5HA,325352,675017,55.962344,-3.197296,City of Edinburgh
189551,The Plough Inn,"Village Square, Cramlington, Northumberland",NE23 1DN,426668,576990,55.086638,-1.583757,Northumberland
108415,Sir Christopher Hatton,"4 Leather Lane, London",EC1N 7RA,531338,181601,51.518071,-0.108495,Camden
524449,Hunters Tryst Restaurant,97 Oxgangs Road,EH13 9NG,323700,668439,55.902991,-3.221908,City of Edinburgh
373172,County Club,"24 King Square, Bridgwater",TA6 3DJ,329789,137190,51.129656,-3.004747,Sedgemoor
110678,The Gable,"25 Moorgate, London",EC2R 6AR,532665,181394,51.5159,-0.089453,City of London
307579,St Aldate's Tavern,"St Aldates Tavern, 108 St Aldate's, Oxford, Oxfordshire",OX1 1BU,451351,206101,51.751248,-1.257526,Oxford
257120,Heswall Royal British Legion,"78 Pensby Road, Heswall, Wirral, Merseyside",CH60 7RF,327040,382161,53.331309,-3.097018,Wirral
379629,King William Inn,"21 Barn Street, Crewkerne, Somerset",TA18 8BP,343832,109498,50.882229,-2.799804,South Somerset
417887,Red Lion,"The Red Lion, 53 High Street, Hillmorton",CV21 4EG,453209,273688,52.358668,-1.220109,Rugby
64728,Royal Oak Inn,"North End, Wirksworth, Derbyshire",DE4 4FG,428823,354170,53.083968,-1.571142,Derbyshire Dales
276882,Selsey Football And Social Club,"High Street, Selsey, Chichester, West Sussex",PO20 0QG,485360,93326,50.733288,-0.791819,Chichester
513553,Strathmore RFC,"Inchmacoble Park, Forfar",DD8 1RL,344562,750389,56.642021,-2.905532,Angus
223257,Woolton Village Club,"23 Allerton Road, Woolton, Liverpool, Liverpool",L25 7RA,342402,386776,53.374684,-2.867219,Liverpool
205357,Wyldes,"4 Bolton Street, Bury, Greater Manchester",BL9 0LQ,380321,410828,53.593653,-2.298792,Bury
205212,The Rose & Crown,"2 Cockey Moor Road, Radcliffe, Greater Manchester",BL8 2HB,377339,410411,53.589784,-2.343815,Bury
121094,Sun in the sands,"Sun In Sands, 123 Shooters Hill Road, Blackheath, Greenwich",SE3 8UQ,540757,177084,51.475224,0.025383,Greenwich
571161,Farmers Arms,"Llanybri, Carmarthen, Carmarthenshire",SA33 5HQ,233724,212543,51.786766,-4.412124,Carmarthenshire
290014,White Lyon And Dragon,"White Lyon House, Worplesdon, Surrey",GU3 3RE,497119,153487,51.272266,-0.60917,Guildford
6189,The Red Lion,"Red Lion, 87 Market Place, Swaffham, Norfolk",PE37 7AQ,581999,308945,52.647696,0.68884,Breckland
553804,Bridge Inn,Island Street Galashiels Scottish Borders,TD1 1NU,348915,636504,55.619434,-2.812689,Scottish Borders
387507,Bearslake Inn,"Lake, Sourton",EX20 4HQ,622675,-5527598,NULL,NULL,West Devon
220262,Etsu,"Beetham Plaza, 25 The Strand, Liverpool, Liverpool",L2 0XJ,334068,390284,53.405236,-2.993202,Liverpool
236127,The Cobblers,"The Cobblers, New Hall Hey Road, Rawtenstall, Rossendale",BB4 6HR,622675,-5527598,NULL,NULL,Rossendale
184279,Sandyford Social Club,"2 - 4 Goldspink Lane, Newcastle Upon Tyne, Newcastle Upon Tyne",NE2 1NQ,425812,565450,54.982993,-1.598201,Newcastle upon Tyne
213637,Snecklifter,"104 Duke Street, Whitehaven, Cumbria",CA28 7EL,297383,518285,54.549366,-3.587983,Copeland
178076,The Surtees Arms,"Surtees Terrace, Chilton Lane, Ferryhill",DL17 0DH,430439,530945,54.67266,-1.529524,County Durham
78219,Worlds End Inn Public House,"Plough Lane, Lowdham",NG14 7AT,466656,346443,53.011147,-1.007977,Newark and Sherwood
580855,Auberge,"Auberge, 25 Frogmore Street, Abergavenny, Monmouthshire",NP7 5AH,329783,214450,51.824239,-3.020217,Monmouthshire
593703,Three Sisters,"Mansel Terrace, Cwmbwrla",SA5 8NN,264987,194778,51.635565,-3.952299,Swansea
391673,The Huntsman Tavern,"Gigant Street, Salisbury, Wiltshire",SP1 2BQ,414715,129782,51.067185,-1.79137,Wiltshire
284856,The Bear,"Old Bear, Riverhill, Cobham",KT11 3DX,510934,159875,51.327166,-0.409221,Elmbridge
423223,The Pheasant Inn,"Pheasant Inn, Neenton, Bridgnorth, Shropshire",WV16 6RJ,363636,287760,52.486536,-2.536936,Shropshire
461660,The Alley,"10 Cottingham Road, Kingston Upon Hull",HU6 7RA,508562,431522,53.768731,-0.354401,"Kingston upon Hull, City of"
461454,Savoy Hotel,"Savoy Hotel Public House, Savoy Road, Kingston Upon Hull",HU8 0TY,512793,431962,53.771786,-0.29008,"Kingston upon Hull, City of"
8697,The Plough,"57 Flamstead End Road, Cheshunt, Hertfordshire",EN8 0JB,534736,203374,51.712925,-0.051183,Broxbourne
175242,GlaxoSmithKline Sports and Social Club,"Strathmore Road, Barnard Castle",DL12 8DS,405482,517359,54.55145,-1.916762,County Durham
209927,Fishermans Tale,"Lakeside Caravan Park Stocks Hill, Winsford, Cheshire",CW7 4EF,365705,365453,53.185056,-2.514662,Cheshire West and Chester
420717,Abel's Harp,"Abels Harp, Bromlow, Minsterley, Shrewsbury",SY5 0EA,332320,301478,52.606848,-3.00085,Shropshire
2386,Bedford Athletic Rugby Club Bar,"Bedford Athletic Rugby Club, Wentworth Drive, Bedford",MK41 8QA,506610,252330,52.158962,-0.44295,Bedford
509687,RICHMOND ARMS,"325 North Deeside Road, Peterculter, Aberdeen",AB14 0UL,383748,800595,57.096046,-2.269853,Aberdeen City
348191,Snuff Mill Harvester,"Harvester, Frenchay Park Road, Stapleton, Bristol",BS16 1LF,363180,177509,51.495324,-2.531771,"Bristol, City of"
211108,Royal Oak,"The Royal Oak, 16 Faulkner Street, Chester, Cheshire",CH2 3BD,341556,367310,53.199641,-2.876341,Cheshire West and Chester
266727,Master Mariner,"24 Waterfront, Brighton Marina, Brighton",BN2 5WD,533782,103209,50.812992,-0.102422,Brighton and Hove
325658,Vale Tavern,"69 Vale Road, Ramsgate, Kent",CT11 9LS,637455,164783,51.332529,1.407391,Thanet
576886,Buckley Conservative Club,"Liverpool Road, Buckley, Flintshire",CH7 3ND,328147,364811,53.175526,-3.076476,Flintshire
314083,The Happy Man,"12 Harvest Road, Englefield Green",TW20 0QS,499667,170888,51.428244,-0.567786,Runnymede
271642,Stag and Hounds,"The Stag And Hounds, Church Road, Iver Heath, Buckinghamshire",SL0 0RW,502590,183527,51.541329,-0.522089,Buckinghamshire
288179,The Fox,"The Fox Tavern, 83 North Street, Gosport",PO12 1BD,461890,99980,50.796088,-1.123234,Gosport
443532,Squires Bar,"Churchills Hotel, 1 High Street, Wombwell",S73 0DA,440022,402967,53.521855,-1.397805,Barnsley
400577,Talk Bar,"The Hairy Lemon, 27 The Priory Queensway, Birmingham",B4 7LL,407317,287056,52.481379,-1.893688,Birmingham
400477,Sutton Coldfield Hard Courts Club,"Highbridge Road, Birmingham",B73 5QB,411798,294667,52.549724,-1.82744,Birmingham
233519,Solos,"22 Wellgate, Clitheroe, Lancashire",BB7 2DP,374458,441884,53.872526,-2.389948,Ribble Valley
370591,St Andrews Bowls Club,"St Andrews Bowling Club, Thirlmere Road, Weston-Super-Mare, North Somerset",BS23 3UY,333124,159626,51.331778,-2.961304,North Somerset
350706,Blue Peter,"Blue Peter Inn, Quay Road, Polperro, Looe",PL13 2QZ,220927,50933,50.331053,-4.517421,Cornwall
488296,The Graziers,"116 Aberford Road, Stanley, Wakefield",WF3 4NN,434466,422996,53.702257,-1.479409,Wakefield
384075,Royal Oak,Dunsford Exeter,EX6 7DA,281255,89162,50.689953,-3.682436,Teignbridge
545140,Buckie Bowling Club,2 Low Street  Buckie  Moray,AB56 1UX,342547,865668,57.677188,-2.96498,Moray
538867,Viking Bar,"1190 Maryhill Road, Glasgow",G20 9BA,257214,668336,55.886939,-4.284475,Glasgow City
429029,Joiners Square Community Hall,"Cornes Street, Hanley, Stoke-On-Trent",ST1 3JA,388883,346498,53.015657,-2.167157,Stoke-on-Trent
51784,The Harrier,"91 Bishops Rise, Hatfield, Hertfordshire",AL10 9BZ,521954,206969,51.748145,-0.234837,Welwyn Hatfield
382936,The Check Inn,"Check Inn, 79 Woodland View, Wroughton, Swindon",SN4 9AA,414861,182143,51.537987,-1.787129,Swindon
432127,The Three Tuns,"Lichfield Street, Tamworth",B79 7QD,420401,304048,52.633813,-1.699995,Tamworth
89107,The Ragley Boat Stop,"Deep Dale Lane, Barrow On Trent, Derby, Derbyshire",DE73 7FY,434572,329452,52.861451,-1.487947,South Derbyshire
361081,WIMBORNE ROYAL BRITISH LEGION,"West Borough, Wimborne, Dorset",BH21 1LA,400826,99994,50.799496,-1.989646,Dorset
271927,The Blackbird,"Main Street, Padbury, Buckinghamshire",MK18 2AY,471791,230565,51.968933,-0.956402,Buckinghamshire
439942,The Punchbowl,"Lichfield Avenue, Worcester",WR5 1PE,387065,254857,52.191798,-2.190653,Worcester
401351,The Yenton,"Sutton Road, Birmingham",B23 5TW,411768,292905,52.533885,-1.827945,Birmingham
575634,Blue Lion,"Blue Lion Inn, Cwm, Rhyl, Denbighshire",LL18 5SG,306494,377466,53.285892,-3.404058,Denbighshire
43397,Estuary Club,"1386 London Road, Leigh-On-Sea, Essex",SS9 2UJ,582873,186499,51.547746,0.636071,Southend-on-Sea
56296,Red Hart Hotel,"Bawtry Road, Blyth, Worksop, Nottinghamshire",S81 8HG,462467,387658,53.382086,-1.062359,Bassetlaw
213638,Solway Hall,"Civic Hall, Lowther Street, Whitehaven, Cumbria",CA28 7SH,297512,517977,54.546631,-3.585877,Copeland
145015,The Sun Of Camberwell,"61 - 63 Coldharbour Lane, London",SE5 9NS,532361,176242,51.469682,-0.095762,Lambeth
398150,New Inn,"Coventry Road, South Yardley, Birmingham",B26 1DG,412865,284843,52.461384,-1.812081,Birmingham
552392,Castle Social Club,"26 Castle Street, Paisley, Renfrewshire",PA1 2JP,247479,663779,55.843038,-4.437419,Renfrewshire
334406,The Cricketers Inn,"Easton Lane, Easton, Winchester, Hampshire",SO21 1EJ,451079,132092,51.085878,-1.272108,Winchester
313906,Penton Community & Social Club,"Penton Community And Social Ce, The Lane, Chertsey",KT16 8QP,504314,168808,51.408722,-0.501579,Runnymede
401304,The Tennis Court,"Walsall Road, Perry Barr, Birmingham",B42 1TY,406585,291984,52.525691,-1.904371,Birmingham
326615,The Nelson Arms,"19 Cromer Street, Tonbridge, Kent",TN9 1UP,558340,146174,51.192853,0.264617,Tonbridge and Malling
54587,The Strutt Club,6 Campbell Street Belper Derbyshire,DE56 1AP,434778,347351,53.022329,-1.482974,Amber Valley
558964,Uddingston Cricket and Sports Club,"Castle Avenue, Uddingston, Glasgow",G71 7HU,269146,660098,55.816362,-4.089892,South Lanarkshire
313260,Ship Inn,"The Strand, Rye, East Sussex",TN31 7DB,591901,120207,50.94935,0.730606,Rother
317051,Catherine Wheel,"Catherine Wheel, Church Lane, Drayton St Leonard, WALLINGFORD",OX10 7AU,459693,196444,51.663615,-1.138363,South Oxfordshire
139428,Beaufort House,"354 King's Road, LONDON",SW3 5UZ,526697,177716,51.484206,-0.176735,Kensington and Chelsea
348663,The Duke of York,"2 Jubilee Road, St Werburghs, Bristol",BS2 9RS,360109,174446,51.467567,-2.575645,"Bristol, City of"
42232,Hilltops Sports & Social Club,"Main Road, Swardeston, Norfolk",NR14 8DU,620616,303258,52.582345,1.254956,South Norfolk
464092,Meltham Golf Club,"Thick Hollins Hall, Thick Hollins, Meltham, Holmfirth",HD9 4DQ,410732,410164,53.587952,-1.839351,Kirklees
121059,Star and Garter,"Star And Garter, 60 Old Woolwich Road, Greenwich, Greenwich",SE10 9NY,538930,178035,51.484222,-0.000543,Greenwich
593557,The Crofty Inn,"71 Pencaerfenni Lane, Crofty",SA4 3SW,252671,194934,51.633866,-4.130193,Swansea
486882,Havercroft Sports & Social Club,"83 Cow Lane, Havercroft, Wakefield",WF4 2HF,439483,414340,53.624114,-1.404516,Wakefield
67523,Kirk Hallam Social Club,"Dallimore Road, Ilkeston",DE7 4GZ,445890,339820,52.953802,-1.318393,Erewash
108871,The Queens Head,"64 Theobald's Road, London",WC1X 8SF,530744,181885,51.520761,-0.116945,Camden
80998,Higham Ferrers Working Mens Club,"6 Westfields Terrace, Higham Ferrers, Northamptonshire",NN10 8BB,495872,268320,52.30464,-0.59534,North Northamptonshire
416410,Stockingford Pavilion Club,"Pavilion, Ansley Road, Stockingford",CV10 8LT,433068,291261,52.518234,-1.514109,Nuneaton and Bedworth
283060,COOP MICROBAR,"5 LOWER NORTHAM ROAD, HEDGE END, SOUTHAMPTON, SO30 4FN",SO30 4FN,449091,112958,50.914006,-1.303069,Eastleigh
192216,Viva Bar / Lounge,"10 Mile End Road, South Shields, Tyne & Wear",NE33 1TA,436344,567420,55.000033,-1.433394,South Tyneside
589137,The Star Bunkhouse,"Bwlch, Brecon, Powys",LD3 7RQ,314988,222038,51.890388,-3.236706,Powys
247211,Corporation Pop (Hyde) Limited,"Post House, Corporation Street, Hyde, Tameside",SK14 1AB,394774,394847,53.450348,-2.080158,Tameside
428471,Captains Bar,"67 Lichfield Street, Hanley, Stoke-On-Trent",ST1 3EA,388469,347274,53.022633,-2.173355,Stoke-on-Trent
247590,Hyde Snooker & Social Club,"Hyde Snooker & Social Club, 13 Manchester Road, Hyde, Tameside",SK14 1BA,394661,395086,53.452495,-2.081863,Tameside
233502,Sauce Box,"31 Moor Lane, Clitheroe, Lancashire",BB7 1BE,374312,441655,53.87046,-2.392149,Ribble Valley
417187,The Warwick Arms Ltd,"76 Ipsley Street, Redditch, Worcestershire",B98 7AE,404228,267331,52.304082,-1.939414,Redditch
439022,Ukranian Social Club,"35 Merridale Street West, Wolverhampton, West Midlands",WV3 0RJ,390623,297968,52.579451,-2.139811,Wolverhampton
250257,Souljuice,"Unit 121, Stretford Shopping Mall, Chester Road, Stretford, Manchester",M32 9BH,379593,394307,53.445129,-2.308708,Trafford
179869,Teams & District Social Club,"Derwentwater Road, Bensham, Gateshead",NE8 2SJ,424190,562156,54.953458,-1.623825,Gateshead
283963,Black Swan,"Old Lane, Cobham, Surrey",KT11 1NG,508901,157312,51.304521,-0.43917,Elmbridge
434133,Darlaston Conservative Club,"Little Cross Street, Darlaston, Walsall, West Midlands",WS10 8ET,397550,297075,52.571491,-2.03758,Walsall
415169,Corley Bowling Club,"Church Lane, Corley, Coventry",CV7 8AZ,429872,285066,52.462726,-1.561759,North Warwickshire
167570,The Phoenix Members Bar,"37 Groom Crescent, London",SW18 3JB,526567,173727,51.448395,-0.180033,Wandsworth
197790,Vickerstown Cricket Club,"Vickerstown Cricket Club, Mill Lane, Barrow-In-Furness, Cumbria",LA14 3ND,317650,468934,54.109666,-3.261104,Barrow-in-Furness
87854,The White Lion,"White Lion Public House, Nottingham Road, Bingham, Nottinghamshire",NG13 8AT,469956,339731,52.950409,-0.960252,Rushcliffe
582652,Smiths Arms,"Smiths Arms, Main Road, Neath Abbey, Neath Port Talbot",SA10 7DG,273854,197590,51.662885,-3.825258,Neath Port Talbot
416,Kins Head Inn,"115 Bures Road, Great Cornard, SUDBURY",CO10 0JE,588383,239975,52.026188,0.744452,Babergh
309935,Tudor Sailing Club,"Eastern Road, Portsmouth",PO3 5LY,467567,103049,50.823051,-1.042132,Portsmouth
267820,The Font,"Union Street, Brighton",BN1 1HA,531019,104163,50.822196,-0.141292,Brighton and Hove
587692,Foyles of Glasbury,"Glasbury, Hereford",HR3 5LH,317614,239274,52.045713,-3.202699,Powys
524120,George IV Bar,"54-55 George Iv Bridge, Edinburgh",EH1 1EJ,325685,673417,55.948018,-3.191539,City of Edinburgh
283701,THE BREWERY BAR,"THE BREWERY BAR, 10 WINCHESTER STREET, BOTLEY, SOUTHAMPTON, SO30 2AA",SO30 2AA,451451,113079,50.914887,-1.269481,Eastleigh
246754,Village Point Ltd,"The Moor Club, 35 Heaton Moor Road, Heaton Moor, Stockport",SK4 4PB,387998,391868,53.423468,-2.182072,Stockport
245819,No 42,"42 Market Street, Marple, Stockport",SK6 7AD,395836,388516,53.393459,-2.06408,Stockport
413911,The Vaults,"11 Teme Street, Tenbury Wells, Worcestershire",WR15 8BB,359601,268330,52.311584,-2.594002,Malvern Hills
361398,Cat And Fiddle Inn,"Sidmouth Road, Clyst St Mary, Exeter",EX5 1DP,299617,91006,50.71,-3.42308,East Devon
229601,Houghton Arms,"708 Oldham Road, Failsworth, Oldham",M35 9FD,390273,402198,53.516365,-2.148162,Oldham
383044,The Tap And Barrel (Pub - Wet Sales),"The Tap And Barrel, 115 Manchester Road, Swindon",SN1 2AJ,415583,185228,51.565716,-1.776582,Swindon
23964,Los Locos,"2 St Peters Road, Great Yarmouth, Norfolk",NR30 3AU,652682,307098,52.602846,1.730171,Great Yarmouth
88435,Barrow On Trent Social Club (The Brookfield),"Brookfield, Barrow On Trent, Derby",DE73 7HG,322742,132393,51.085629,-3.10441,South Derbyshire
581725,White Lion & Pye Corner,"Bank Square, Bank Street, Chepstow, Monmouthshire",NP16 5EL,353286,193853,51.641527,-2.676461,Monmouthshire
74255,The Locker Room,"5 - 11 Belvoir Street, Leicester",LE1 6SL,458892,304273,52.633023,-1.131271,Leicester
77620,Lord Nelson Public House,"Main Road, Besthorpe, Newark On Trent",NG23 7HR,482672,364566,53.171797,-0.764667,Newark and Sherwood
374719,Holywell Inn,"Holywell Inn, Holywell Lake, Wellington",TA21 0EJ,310599,120357,50.97566,-3.274759,Somerset West and Taunton
513664,Thistle Bar,"Mutchies, 199 East High Street, Forfar",DD8 2HL,346112,750865,56.646478,-2.880362,Angus
244074,Stocks Tavern,"Blue Bell, 4-8 High Street, Newton Le Willows",WA12 9SN,359166,395730,53.456729,-2.616422,St. Helens
327567,The Elephants Head,"Elephants Head, Furnace Lane, Lamberhurst, Tunbridge Wells",TN3 8LJ,565559,135857,51.098121,0.363085,Tunbridge Wells
172809,Bondgate Tavern,"94 Bondgate, DARLINGTON",DL3 7JY,428768,514681,54.526602,-1.557022,Darlington
294263,Cowes Grazing @ The Compass Bar,"10 - 11 High Street, Cowes, Isle Of Wight",PO31 7RZ,449607,96021,50.761667,-1.298026,Isle of Wight
174548,Colpitts Hotel,"Colpitts Terrace, Durham City",DH1 4EG,426762,542390,54.775716,-1.585475,County Durham
60614,Spot On,"17 Kenilworth Avenue, Loughborough",LE11 4SL,451348,319880,52.774076,-1.240296,Charnwood
454423,Beverley RUFC,"Norwood, Beverley, East Riding Of Yorkshire",HU17 9HT,441586,478837,54.203609,-1.363975,East Riding of Yorkshire
443467,Shaw Lane Sports Club,"Shaw Lane Sports Ground, Shaw Lane, Barnsley",S70 6HZ,433671,406092,53.550387,-1.493272,Barnsley
577953,The Millstone,"Millstone Inn, Hawarden Road, Penyffordd, Flintshire",CH4 0JE,330272,362025,53.150778,-3.044081,Flintshire
271906,The Bell,"The Green, Chearsley, Buckinghamshire",HP18 0DJ,471747,210578,51.789258,-0.961191,Buckinghamshire
272322,The Red Lion,"The Red Lion Public House, Red Lion Street, Chesham, Buckinghamshire",HP5 1ET,495939,201397,51.703115,-0.613075,Buckinghamshire
379191,Chicago Rock Cafe,"Stars Lane, Yeovil, Somerset",BA20 1NR,355968,115880,50.94067,-2.628063,South Somerset
193165,Queens Social Club,"10A Queens Avenue, Thornaby",TS17 6PA,445247,518042,54.555614,-1.301909,Stockton-on-Tees
233319,Key Street Ltd,"Key Street, Lowergate, Clitheroe, Lancashire",BB7 1AD,374440,441807,53.87183,-2.390215,Ribble Valley
123671,Peoples Park Tavern,"360 Victoria Park Road, Hackney, London",E9 7BT,535993,184086,51.5393,-0.040482,Hackney
271896,The Bee,"1 Britwell Road, Burnham, Buckinghamshire",SL1 8AF,493188,182736,51.535847,-0.657843,Buckinghamshire
104047,Bromley Golf Centre,"Magpie Hall Lane, Bromley",BR2 8JF,542332,166884,51.383166,0.043941,Bromley
361608,Exmouth Rugby Football Club,"Imperial Road, Exmouth",EX8 1DG,299805,81028,50.620331,-3.417714,East Devon
584861,Cross Inn,"Cross Inn, Clarbeston Road, Pembrokeshire",SA63 4UL,201803,221024,51.852532,-4.879201,Pembrokeshire
425098,The Crown At Olton Members Club,"2 Masons Way, Olton, Solihull, West Midlands",B92 7JE,413143,282604,52.441249,-1.808077,Solihull
566791,Trecenydd Snooker & Sports Bar,"First Avenue, Trecenydd, Caerphilly",CF83 2SD,314733,187449,51.579428,-3.231924,Caerphilly
297483,Headcorn Football Club,"Grigg Lane, Headcorn, Kent",TN27 9LY,584441,144598,51.170879,0.636948,Maidstone
201845,Karaoke Bar,"9-11 Bradshawgate, Bolton",BL1 1EL,371857,409248,53.579055,-2.426524,Bolton
288827,The Cricketers,"47 Arthur Street, Gravesend, Kent",DA11 0PR,564520,173718,51.43857,0.365681,Gravesham
71253,The Last Roadhouse,"52 Coventry Road, Hinckley, Leicestershire",LE10 0JT,442250,293657,52.53914,-1.378498,Hinckley and Bosworth
193577,The Smiths Arms,"Carlton Village, Stockton-On-Tees",TS21 1EA,439441,521776,54.589635,-1.391176,Stockton-on-Tees
431369,The Crown Inn,"8 High Street, Stockton, Southam",CV47 8JZ,443675,263883,52.271365,-1.361365,Stratford-on-Avon
448024,The Ring O' Bells,"212 Hill Top Road, Thornton, Bradford",BD13 3QL,409014,433159,53.794674,-1.864644,Bradford
593966,Blaenavon Constitutional Club,"Blaenavon Constitutional Club, James Street, Blaenavon, Pontypool",NP4 9EJ,325274,208765,51.772548,-3.084401,Torfaen
428125,Westwood Golf Club,"Newcastle Road, Leek, Staffordshire Moorlands",ST13 7AA,397471,355412,53.095905,-2.03922,Staffordshire Moorlands
530655,Knockhill - Champions Clubhouse,Knockhill Racing Circuit Saline Fife,KY12 9TF,306306,694212,56.131398,-3.509009,Fife
309827,The One Eyed Dog,"177-185, Elm Grove, Southsea",PO5 1LU,464716,99287,50.789551,-1.08325,Portsmouth
236595,City Suites Holdco Ltd,"City Suites Executive Lounge (1st Floor), 16 Chapel Street, Salford",M3 7NH,383706,398788,53.48555,-2.247019,Salford
110710,The Magpie,"The Magpie Public House, 12 New Street, London",EC2M 4TP,533364,181563,51.517245,-0.079322,City of London
23521,Belle Vue Inn,"11 Quay Road, Gorleston, Great Yarmouth, Norfolk",NR31 6PJ,653019,303634,52.571623,1.732493,Great Yarmouth
449085,Flying Dutchman,"10 Boothtown Road, Halifax",HX3 6HG,409020,426365,53.7336,-1.864749,Calderdale
348585,The Cabot Cruising Club,"John Sebastian Lightship, Bathurst Basin, Redcliff, Bristol",BS1 6UB,358706,172180,51.447092,-2.59559,"Bristol, City of"
552840,Kilmacolm Golf Club,"Kilmacolm Golf Club, Porterfield Road, Kilmacolm, Renfrewshire",PA13 4AD,236172,669404,55.889822,-4.621202,Inverclyde
39803,The Grange Peterborough Limited,"The Grange Club House, 196 Mayors Walk, West Town, Peterborough",PE3 6HQ,517623,299275,52.578569,-0.265603,Peterborough
522899,Belushis / Jakes,9-13 Market Street,EH1 1DE,325768,673719,55.950744,-3.190278,City of Edinburgh
288177,The Five Alls,"75 Forton Road, Gosport",PO12 4TD,461296,100270,50.798759,-1.131599,Gosport
158431,The fox on the hill,"149, Denmark Hill, London",SE5 8EH,532781,175715,51.464839,-0.089917,Southwark
234394,Heywood Reform Club,"34 Tower Street, Heywood, Lancashire",OL10 3AA,385107,410673,53.592419,-2.226477,Rochdale
57833,Royal Oak Inn,"High Street, Barlborough, Chesterfield",S43 4EU,447417,377255,53.290137,-1.290146,Bolsover
215364,The Cartford Inn,"Cartford Country Inn Hotel, Cartford Lane, Little Eccleston",PR3 0YP,342103,440621,53.858558,-2.881743,Fylde
86347,The Overdraught,"11 Alfreton Road, Nottingham",NG7 3JE,456311,340229,52.95649,-1.163226,Nottingham
57966,The New Victoria Inn,"Acreage Lane, Shirebrook, Mansfield",NG20 8RL,452473,366953,53.197083,-1.216003,Bolsover
11781,The Bell,"4 Market Square, Toddington, Bedfordshire",LU5 6BP,501017,228850,51.948982,-0.531615,Central Bedfordshire
431370,The Crown Inn,"Crown Inn, Crown Street, Harbury, Leamington Spa",CV33 9HE,437514,260028,52.237181,-1.452076,Stratford-on-Avon
550923,Blair Atholl Golf Club,"Blair Atholl Golf Club, Invertilt Road, Bridge Of Tilt, Pitlochry",PH18 5TE,287658,765280,56.765532,-3.839465,Perth and Kinross
296849,The Bull Inn,"24 The Green, Newick, East Sussex",BN8 4LA,541852,121394,50.974489,0.019108,Lewes
208597,The Prince of Wales,"4-6 Lawton Street, Congleton",CW12 1RP,386083,362874,53.162812,-2.209607,Cheshire East
118012,Holtwhites Sports & Social,"Holtwhites Hill Sports Ground, 1 Kirkland Drive, ENFIELD",EN2 0RU,532198,197449,51.660276,-0.090139,Enfield
141999,Malden Wanderers Cricket & Lawn Tennis Club,"Club House, 20 Cambridge Avenue, New Malden",KT3 4LE,521449,169153,51.408414,-0.255219,Kingston upon Thames
211105,Royal British Legion,"The Royal British Legion Chester Road, Neston, Cheshire",CH64 9PB,329290,377418,53.28899,-3.062165,Cheshire West and Chester
77944,Stanton Arms Public House,"Mickledale Lane, Bilsthorpe, Nottinghamshire",NG22 8QB,464805,360962,53.141875,-1.032643,Newark and Sherwood
139065,The Peasant,"The Peasant, 240 St John Street, Islington, London",EC1V 4PH,531675,182497,51.526035,-0.103301,Islington
387909,Sandy Park Inn,"Sandy Park, Chagford",TQ13 8JW,622675,-5527598,NULL,NULL,West Devon
411591,Red Kite Rising,"Monkland Arms, Monkland",HR6 9DE,345052,257495,52.212917,-2.805622,"Herefordshire, County of"
436376,Lillington Club,"Lillington Mens Club, Lime Avenue, Lillington",CV32 7DA,432687,267412,52.30386,-1.522045,Warwick
13861,Centurion,"66 North Hill, Colchester",CO1 1PX,599383,225271,51.890322,0.896045,Colchester
407664,Harvester Castle Gate,"Castlegate Way, Dudley",DY1 4TA,395195,290920,52.516142,-2.072236,Dudley
240464,West Lancashire Yacht Clubhouse,"West Lancashire Yacht Club, Marine Drive, Southport",PR8 1RY,622675,-5527598,NULL,NULL,Sefton
566681,The Bumble Bee,"Unit 8, Blackwood Gate Retail Park, Blackwood, Gwent",NP12 2FS,317713,196529,51.661495,-3.191064,Caerphilly
560546,Atlantis Public House,"246-262 Kilbowie Road, Clydebank",G81 2JG,249852,670910,55.907797,-4.403513,West Dunbartonshire
395808,Greyhound Inn,"Court Lane, Erdington, Birmingham",B23 5JX,410296,293685,52.540917,-1.849621,Birmingham
340609,The Chequers,"50 Rivers Street, City Centre, Bath, Bath And North East Somerset",BA1 2QA,374700,165443,51.387458,-2.364968,Bath and North East Somerset
265039,2 Church Street Wine And Cocktail Bar,"Regent House, 2 Church Street, Brighton",BN1 1UJ,531099,104421,50.824505,-0.140065,Brighton and Hove
40957,Cottenham Parish Council,"Cottenham Parish Council Village Hall Lambs Lane, Cottenham, Cambridgeshire",CB24 8TB,622675,-5527598,NULL,NULL,South Cambridgeshire
550100,The Heritage Bar,"26 Sunnyside Road, Coatbridge, Lanarkshire",ML5 3DG,273087,665328,55.864367,-4.029488,North Lanarkshire
190975,The North Skelton,"Holmbeck Road, North Skelton",TS12 2AL,467381,518523,54.557469,-0.959617,Redcar and Cleveland
374770,Kings Arms,"22 Staplegrove Road, Taunton, Somerset",TA1 1DQ,322436,125091,51.01994,-3.107207,Somerset West and Taunton
363742,The Fat Pig,"Flat, The Fat Pig, 2 John Street, Exeter",EX1 1BL,291810,92371,50.720859,-3.534015,Exeter
34659,The Radcliffe,"Radcliffe Arms, 31 Walsworth Road, Hitchin, Hertfordshire",SG4 9ST,519009,229510,51.951357,-0.269734,North Hertfordshire
235471,Waterside Bar & Restaurant,"Waterside Inn, 1-3 Inghams Lane, Littleborough, Lancashire",OL15 0AY,393785,416147,53.641797,-2.095481,Rochdale
474360,Crowle Liberal Sports and Social Club,"42 Fieldside, Crowle, North Lincolnshire",DN17 4HL,477362,413003,53.607882,-0.832239,North Lincolnshire
534570,Duchess On Duke Street,"380 Duke Street, Glasgow",G31 1DN,261257,665011,55.85826,-4.218202,Glasgow City
1537,Kings Head,"Kings Head, Southend Road, Great Burstead, Billericay",CM11 2PS,568937,192921,51.609779,0.438371,Basildon
31147,Hibbert Arms,"The Hibbert Arms, 35 Hibbert Street, Luton",LU1 3UU,509177,220655,51.87379,-0.415529,Luton
36495,Wells Town Football Club,"Beach Road, Wells-next-the-Sea, Norfolk",NR23 1DR,591440,345066,52.968765,0.849347,North Norfolk
197012,The Lion & Lamb,"27 High Street, Wigton, Cumbria",CA7 9NJ,325543,548321,54.824182,-3.16042,Allerdale
409834,MARSTONS BAR,"Uttoxeter Racecourse, Wood Lane, Uttoxeter",ST14 8BD,409926,333201,52.896164,-1.853894,East Staffordshire
547401,Tavern Bar,"36 Glasgow Street, Millport, Isle Of Cumbrae",KA28 0DL,216674,655021,55.753728,-4.922834,North Ayrshire
193677,West End Bowling Club,"2 Darlington Road, Stockton-On-Tees",TS18 5BD,443032,517997,54.555393,-1.336161,Stockton-on-Tees
417760,Midas Lounge,"Midas Lounge, 49 Church Street, Rugby",CV21 3PT,450451,275208,52.372601,-1.260375,Rugby
117549,Crown And Anchor,"Public House, 222 Fore Street, LONDON",N18 2QD,534161,192620,51.616427,-0.063625,Enfield
589286,Upper House,"Llandyssil, Montgomery, Powys",SY15 6LQ,319693,295284,52.549454,-3.185766,Powys
45771,The Three Horseshoes,"616 Hatfield Road, Smallford, St Albans, Hertfordshire",AL4 0HP,519654,207695,51.755174,-0.267887,St Albans
348532,The Barley Mow,"Barley Mow, 1 East Street, Bedminster, Bristol",BS3 4HH,358746,171705,51.442824,-2.594959,"Bristol, City of"
54553,The King Of Prussia,4 Market Place Heanor Derbyshire,DE75 7AA,443498,346470,53.013784,-1.353102,Amber Valley
480899,The Blackamoor Head Hotel,"6 Finkle Street, Selby, North Yorkshire",YO8 4DT,461426,432429,53.784569,-1.069195,Selby
54525,The Excavator,Buckland Hollow Ambergate Belper Derbyshire,DE56 2HS,437500,351784,53.061993,-1.441882,Amber Valley
20580,Sailors Home,"The Sailors Home, 302 Church Road, Kessingland, Lowestoft",NR33 7SB,653528,285956,52.4128,1.72654,East Suffolk
450919,Elm Tree Inn,"6 Elm Tree Square, Embsay, Skipton",BD23 6RB,400891,453809,53.980344,-1.987907,Craven
570071,The Penylan Bowling Club,"Penylan Bowling & Lawn Tennis Club Marlborough Road, Roath, Cardiff, Cardiff",CF23 5BU,319651,177879,51.494122,-3.158778,Cardiff
435474,The Workers Rest,"Upper Lichfield Street, Willenhall, Walsall, West Midlands",WV13 1PB,396397,298545,52.584699,-2.054609,Walsall
340330,Rufus Catering,"New Inn, 23 - 24 Monmouth Place, City Centre, Bath",BA1 2AY,374639,164936,51.382899,-2.365807,Bath and North East Somerset
275660,The George And Dragon,"George And Dragon Church Lane, Shutford, Oxfordshire",OX15 6PG,438593,240180,52.058666,-1.438526,Cherwell
185411,Harvester,"The Magic Lantern, Preston North Road, North Shields, Tyne And Wear",NE29 9DN,434809,570317,55.026183,-1.457036,North Tyneside
384275,The Brass Monkey,Hollands Road Teignmouth Devon,TQ14 8SR,294254,72998,50.547153,-3.493872,Teignbridge
425102,The Damson Tree,"Rowood Drive, Solihull",B92 9NG,415961,281520,52.431431,-1.766673,Solihull
124766,Windsor Castle,"The Windsor Castle, 135 Lower Clapton Road, Hackney, London",E5 8EQ,534937,185811,51.555063,-0.055052,Hackney
535485,Intermezzo,"22 Renfrew Street, Glasgow",G2 3BW,258993,665876,55.865369,-4.254791,Glasgow City
485693,West Street Live,"128 West Street, City Centre, Sheffield",S1 4ES,434922,387244,53.380898,-1.476479,Sheffield
537491,Shevlane's Bar,"151 Springburn Way, Glasgow",G21 1DT,260567,667724,55.882418,-4.230613,Glasgow City
247513,Hare And Hounds,"Hare And Hounds Hotel, Werneth Low Road, Hyde, Tameside",SK14 3AA,395966,392813,53.432087,-2.062182,Tameside
532532,The Station Bar,80 Crossgate Cupar Fife,KY15 5HQ,337518,714346,56.317374,-3.011696,Fife
349967,Parklands Community Centre,"Wymans Road, Cheltenham, Gloucestershire",GL52 5PR,396108,223087,51.906306,-2.057978,Cheltenham
230857,Barnoldswick Conservative Club,"Conservative Club, Station Road, Barnoldswick, Lancashire",BB18 5NA,387776,446740,53.916656,-2.187595,Pendle
58041,Whitwell Social Club,"38 Butt Hill, Whitwell, Worksop",S80 4RP,452951,376564,53.283422,-1.207237,Bolsover
305599,LYMINGTON CONSERVATIVE CLUB LTD,"WISTARIA, 32 ST THOMAS STREET, LYMINGTON",SO41 9NE,432007,95393,50.757264,-1.5476,New Forest
409604,FARMERS ARMS,"Farmers Arms, Farm Lane, Withington, Stoke On Trent",ST10 4PU,403233,335247,52.914639,-1.953365,East Staffordshire
389033,Cross Guns Inn,"Avoncliff, Bradford On Avon, Wiltshire",BA15 2HB,380523,160004,51.338787,-2.280987,Wiltshire
518397,Dukes Corner,"13-15 Brown Street, Dundee",DD1 5EF,339768,730434,56.462181,-2.979029,Dundee City
3702,The Prince Of Wales,"The Prince Of Wales, 8 Northampton Road, Bromham, Bedford",MK43 8PE,500267,250700,52.145499,-0.536121,Bedford
238089,Weaste & Seedley Social Club,"168A Weaste Lane, Salford",M5 5JL,379634,398901,53.486425,-2.308391,Salford
380368,The Half Moon,"Ham Hill, Stoke Sub Hamdon, Somerset",TA14 6RL,347498,117295,50.952691,-2.748808,South Somerset
473668,St James Hotel,"St James Hotel, St James Square, Grimsby",DN31 1EP,526592,409215,53.564277,-0.090087,North East Lincolnshire
188777,Robin Hood Inn,"East Wallhouses, Northumberland",NE18 0LL,404782,568307,55.0093,-1.926765,Northumberland
16567,Tring Rugby Club,"Tring Rugby Club, Cow Lane, Tring, Hertfordshire",HP23 5NS,493830,211710,51.796184,-0.640797,Dacorum
84167,Calluna Bar,"11 Forman Street, Nottingham",NG1 4AA,457213,340119,52.955413,-1.14982,Nottingham
329974,Buxted Inn,"High Street, Buxted, East Sussex",TN22 4LA,549788,123346,50.990031,0.132867,Wealden
56413,Sun Inn,"Gainsborough Road, Everton, Nottinghamshire",DN10 5BW,469395,390893,53.410296,-0.957514,Bassetlaw
179035,Friars Goose Water Sports Club,"Green Lane, Gateshead, Tyne and Wear",NE10 0QH,427703,562817,54.959215,-1.568895,Gateshead
267189,Pulse Catering Ltd - Preston Park Tavern,"88 Havelock Road, Brighton",BN1 6GF,531016,106208,50.840577,-0.14059,Brighton and Hove
239317,Lock & Quay,"2 Irlam Road, Bootle, Merseyside",L20 4AH,333825,395161,53.44904,-2.997889,Sefton
62130,Bar One,"Newland Street, Derby",DE1 1JD,434889,336154,52.921665,-1.482523,Derby
140000,Hereford Arms (The),"PUBLIC HOUSE, 127 Gloucester Road, LONDON",SW7 4TE,526349,178696,51.493099,-0.181393,Kensington and Chelsea
301470,The Jack & Jill Inn,Jack And Jill Inn Brighton Road Hassocks West Sussex,BN6 9PD,529839,114240,50.913033,-0.154448,Mid Sussex
68019,Zingari Club,"College Street, Long Eaton",NG10 4NP,448350,334335,52.904275,-1.282595,Erewash
566057,Kings Arms,"46 Cardiff Road, Caerphilly",CF83 1JQ,315559,186741,51.573188,-3.219836,Caerphilly
92097,The White Hart,"White Hart Inn, Linwood Road, Lissington, Lincoln",LN3 5AE,510829,383319,53.33518,-0.337083,West Lindsey
226439,Micro Bar,"49 High Street, Manchester",M4 3AH,384228,398584,53.483741,-2.239155,Manchester
164912,Walthamstow Cricket&LawnTennis Club,"48a Greenway Avenue, Walthamstow",E17 3QN,538586,189355,51.586008,-0.001043,Waltham Forest
359620,Shaftesbury Football Club,"Shaftesbury Football Club Coppice Street, Shaftesbury, Dorset",SP7 8PD,386613,123015,51.006363,-2.192173,Dorset
53286,The Greengage,"Tollgate Lane, Bury St Edmunds, Suffolk",IP32 6DE,584568,265768,52.259109,0.702907,West Suffolk
270959,Old Fisherman,"Mill Road, Shabbington, Buckinghamshire",HP18 9HJ,466466,206147,51.750085,-1.038591,Buckinghamshire
375403,The Far Canal,"Canal Inn, Langport Road, Wrantage, Taunton, Somerset",TA3 6DF,330808,122501,50.997732,-2.987372,Somerset West and Taunton
360501,THE OLD INN,"The Old Inn, Holt Lane, Holt, Dorset",BH21 7DJ,403070,104013,50.83564,-1.957769,Dorset
281870,Club'97,"114 South Street, Eastbourne, East Sussex",BN21 4LZ,561187,98786,50.766268,0.284332,Eastbourne
153844,The George Public House,"70-74 High Road, South Woodford",E18 2QL,540206,190218,51.593371,0.022655,Redbridge
209320,C S Trading,"The Iron Bridge, 121 Chester Road, Northwich, Cheshire",CW8 1HH,364971,373275,53.255325,-2.526508,Cheshire West and Chester
86243,The Cell,"22 Fletcher Gate, Nottingham",NG1 2FZ,457467,339797,52.952492,-1.146096,Nottingham
480775,Railway Sports & Social Club,"Station Road, Selby, North Yorkshire",YO8 4AA,461702,432104,53.781616,-1.065087,Selby
264051,The Old House At Home,"Tylney Lane, Newnham, Hook, Hampshire",RG27 9AH,470583,154135,51.281994,-0.989362,Basingstoke and Deane
37942,The Garden House,"1 Pembroke Road, Norwich",NR2 3HD,621750,308300,52.627128,1.275042,Norwich
283757,THE LAPSTONE,"THE LAPSTONE, BOTLEY ROAD, FAIR OAK, EASTLEIGH, SO50 7AP",SO50 7AP,449654,117582,50.955537,-1.29444,Eastleigh
408997,The Old Chainyards,"63 Castle Street, Coseley, Bilston",WV14 9DW,394149,293765,52.541708,-2.087701,Dudley
284970,The Waverley Inn,"Heath Road, Weybridge, Surrey",KT13 8TH,507262,164403,51.368568,-0.460536,Elmbridge
323041,Shipley Bridge Inn,"Shipley Bridge, Antlands Lane, Shipley Bridge",RH6 9TE,530670,141938,51.16178,-0.132657,Tandridge
232130,Hesketh Arms,"421 New Hall Lane, Preston",PR1 4SY,356284,430148,53.765843,-2.664664,Preston
477865,The Dragon Tap,"477 Herringthorpe Valley Road, Herringthorpe, Rotherham, South Yorkshire",S65 3AD,445184,391614,53.4194,-1.321597,Rotherham
177859,The Hilltop,"East Street, East Stanley, Stanley",DH9 0UE,420608,553373,54.874702,-1.68038,County Durham
272109,The George & Dragon,"32 The Green, Quainton, Buckinghamshire",HP22 4AR,474683,220110,51.87457,-0.916578,Buckinghamshire
286908,Hythe & Saltwood Sailing Club,"Marine Parade, Hythe, Kent",CT21 6AW,616448,134230,51.066579,1.087912,Folkestone and Hythe
16508,The Rex Cinema Berkhamsted,"Rex Cinema, High Street, Berkhamsted, Hertfordshire",HP4 2BT,499441,207623,51.758467,-0.560638,Dacorum
450679,White Swan Hotel,"Bridge Gate, Hebden Bridge",HX7 8EX,399230,427256,53.741684,-2.013154,Calderdale
155461,The Roebuck,"72 Hampton Road, Hampton Hill",TW12 1JN,514607,171288,51.429018,-0.352864,Richmond upon Thames
85205,Marcus Garvey West Indian Cavaliers Sports & Social Club,"Marcus Garvey Centre, Lenton Boulevard, Nottingham",NG7 2BY,455423,339849,52.953165,-1.176507,Nottingham
475020,Queen Bess,"Derwent Road, Scunthorpe, North Lincolnshire",DN16 2PE,490757,408537,53.565598,-0.631146,North Lincolnshire
58127,Boston Social Pigeon Club,"Social Pigeon Centre, Rasons Court, Boston",PE21 6TH,533068,344175,52.978413,-0.019564,Boston
445129,Dick Hudsons,"Otley Road, High Eldwick, Bingley",BD16 3BA,412126,442220,53.876041,-1.817048,Bradford
520428,The New Murray Bar,"The New Murray Bar, 30 Central Avenue, Kilmarnock, East Ayrshire",KA1 4PS,242813,635222,55.585198,-4.495452,East Ayrshire
